{
"type": "FeatureCollection",
"features": [
{ "type": "Feature", "properties": { "ID_Central": 1.000000, "CLLI_SEDE": "", "NOME_CENTR": "3", "COMUNE": "VICOLUNGO", "ISTAT_COMU": "003159", "INDIRIZZO": "LARGO GARIBALDI", "LATITUDINE": 45.478473, "LONGITUDIN": 8.462512, "POINT_X": 457991.781915, "POINT_Y": 5036245.361700, "TIPO_ADSL": "ADSL_1", "Desc_TIPO": "ADSL (8 mega)" }, "geometry": { "type": "Point", "coordinates": [ 8.462512, 45.478473 ] } }
,
{ "type": "Feature", "properties": { "ID_Central": 2.000000, "CLLI_SEDE": "PINEITAQ", "NOME_CENTR": "ABBADIA ALPINA", "COMUNE": "PINEROLO", "ISTAT_COMU": "001191", "INDIRIZZO": "GIUSTETTO 55", "LATITUDINE": 44.884509, "LONGITUDIN": 7.299238, "POINT_X": 365684.824610, "POINT_Y": 4971527.935870, "TIPO_ADSL": "ADSL_2P", "Desc_TIPO": "ADSL 2+ (24 mega)" }, "geometry": { "type": "Point", "coordinates": [ 7.299238, 44.884509 ] } }
,
{ "type": "Feature", "properties": { "ID_Central": 3.000000, "CLLI_SEDE": "PRAZITAC", "NOME_CENTR": "ACCEGLIO", "COMUNE": "ACCEGLIO", "ISTAT_COMU": "004001", "INDIRIZZO": "BORGO VILLA MUNICIPIO", "LATITUDINE": 44.475651, "LONGITUDIN": 6.977725, "POINT_X": 339166.129519, "POINT_Y": 4926693.538610, "TIPO_ADSL": "NO", "Desc_TIPO": "NO Adsl" }, "geometry": { "type": "Point", "coordinates": [ 6.977725, 44.475651 ] } }
,
{ "type": "Feature", "properties": { "ID_Central": 4.000000, "CLLI_SEDE": "ASTIITAY", "NOME_CENTR": "ACCORNERI", "COMUNE": "VIARIGI", "ISTAT_COMU": "005115", "INDIRIZZO": "FRAZ.ACCORNERI", "LATITUDINE": 44.947048, "LONGITUDIN": 8.371731, "POINT_X": 450437.200914, "POINT_Y": 4977260.105040, "TIPO_ADSL": "ADSL_M", "Desc_TIPO": "ADSL Mini" }, "geometry": { "type": "Point", "coordinates": [ 8.371731, 44.947048 ] } }
,
{ "type": "Feature", "properties": { "ID_Central": 5.000000, "CLLI_SEDE": "ACTEITAM", "NOME_CENTR": "ACQUI TERME", "COMUNE": "ACQUI TERME", "ISTAT_COMU": "006001", "INDIRIZZO": "PIAZZA MATTEOTTI 31", "LATITUDINE": 44.673765, "LONGITUDIN": 8.466995, "POINT_X": 457753.369717, "POINT_Y": 4946848.997810, "TIPO_ADSL": "ADSL_2P", "Desc_TIPO": "ADSL 2+ (24 mega)" }, "geometry": { "type": "Point", "coordinates": [ 8.466995, 44.673765 ] } }
,
{ "type": "Feature", "properties": { "ID_Central": 6.000000, "CLLI_SEDE": "ACTEITAL", "NOME_CENTR": "ACQUI TERME OVEST", "COMUNE": "ACQUI TERME", "ISTAT_COMU": "006001", "INDIRIZZO": "CARLO MARX", "LATITUDINE": 44.678278, "LONGITUDIN": 8.460598, "POINT_X": 457249.625146, "POINT_Y": 4947353.669300, "TIPO_ADSL": "ADSL_1", "Desc_TIPO": "ADSL (8 mega)" }, "geometry": { "type": "Point", "coordinates": [ 8.460598, 44.678278 ] } }
,
{ "type": "Feature", "properties": { "ID_Central": 7.000000, "CLLI_SEDE": "MOATITAN", "NOME_CENTR": "AGLIANO DANI", "COMUNE": "AGLIANO TERME", "ISTAT_COMU": "005001", "INDIRIZZO": "AGLIANO REE DANI", "LATITUDINE": 44.795370, "LONGITUDIN": 8.248770, "POINT_X": 440581.199726, "POINT_Y": 4960493.473910, "TIPO_ADSL": "NO", "Desc_TIPO": "NO Adsl" }, "geometry": { "type": "Point", "coordinates": [ 8.248770, 44.795370 ] } }
,
{ "type": "Feature", "properties": { "ID_Central": 8.000000, "CLLI_SEDE": "MOATITAH", "NOME_CENTR": "AGLIANO TERME", "COMUNE": "AGLIANO TERME", "ISTAT_COMU": "005001", "INDIRIZZO": "PIAZZA GALLEANI 6", "LATITUDINE": 44.792126, "LONGITUDIN": 8.250033, "POINT_X": 440677.765544, "POINT_Y": 4960132.247740, "TIPO_ADSL": "ADSL_1", "Desc_TIPO": "ADSL (8 mega)" }, "geometry": { "type": "Point", "coordinates": [ 8.250033, 44.792126 ] } }
,
{ "type": "Feature", "properties": { "ID_Central": 9.000000, "CLLI_SEDE": "RICAITAA", "NOME_CENTR": "AGLIE'", "COMUNE": "AGLIE'", "ISTAT_COMU": "001001", "INDIRIZZO": "ROMA 3", "LATITUDINE": 45.363311, "LONGITUDIN": 7.768604, "POINT_X": 403562.509637, "POINT_Y": 5024048.359190, "TIPO_ADSL": "ADSL_1", "Desc_TIPO": "ADSL (8 mega)" }, "geometry": { "type": "Point", "coordinates": [ 7.768604, 45.363311 ] } }
,
{ "type": "Feature", "properties": { "ID_Central": 10.000000, "CLLI_SEDE": "OMEGITAE", "NOME_CENTR": "AGRANO", "COMUNE": "OMEGNA", "ISTAT_COMU": "103050", "INDIRIZZO": "P.BENZANO 7", "LATITUDINE": 45.844208, "LONGITUDIN": 8.418427, "POINT_X": 454841.259623, "POINT_Y": 5076902.603550, "TIPO_ADSL": "ADSL_M", "Desc_TIPO": "ADSL Mini" }, "geometry": { "type": "Point", "coordinates": [ 8.418427, 45.844208 ] } }
,
{ "type": "Feature", "properties": { "ID_Central": 11.000000, "CLLI_SEDE": "BRGOITAA", "NOME_CENTR": "AGRATE CONTURBIA", "COMUNE": "AGRATE CONTURBIA", "ISTAT_COMU": "003001", "INDIRIZZO": "PER BORGO TICINO", "LATITUDINE": 45.670891, "LONGITUDIN": 8.555349, "POINT_X": 465366.092864, "POINT_Y": 5057578.418450, "TIPO_ADSL": "ADSL_M", "Desc_TIPO": "ADSL Mini" }, "geometry": { "type": "Point", "coordinates": [ 8.555349, 45.670891 ] } }
,
{ "type": "Feature", "properties": { "ID_Central": 12.000000, "CLLI_SEDE": "CHERITAQ", "NOME_CENTR": "AIRALI DI CHIERI", "COMUNE": "CHIERI", "ISTAT_COMU": "001078", "INDIRIZZO": "STRADA AIRALI-CHIERI 4", "LATITUDINE": 45.048150, "LONGITUDIN": 7.840570, "POINT_X": 408695.750155, "POINT_Y": 4988953.103940, "TIPO_ADSL": "NO", "Desc_TIPO": "NO Adsl" }, "geometry": { "type": "Point", "coordinates": [ 7.840570, 45.048150 ] } }
,
{ "type": "Feature", "properties": { "ID_Central": 13.000000, "CLLI_SEDE": "NONEITAN", "NOME_CENTR": "AIRASCA", "COMUNE": "AIRASCA", "ISTAT_COMU": "001002", "INDIRIZZO": "VIGONE INCROCIO S.S.23", "LATITUDINE": 44.916770, "LONGITUDIN": 7.489150, "POINT_X": 380749.593750, "POINT_Y": 4974815.000000, "TIPO_ADSL": "ADSL_1", "Desc_TIPO": "ADSL (8 mega)" }, "geometry": { "type": "Point", "coordinates": [ 7.489150, 44.916770 ] } }
,
{ "type": "Feature", "properties": { "ID_Central": 14.000000, "CLLI_SEDE": "DEMOITAD", "NOME_CENTR": "AISONE", "COMUNE": "AISONE", "ISTAT_COMU": "004002", "INDIRIZZO": "FOSSA 1", "LATITUDINE": 44.312847, "LONGITUDIN": 7.217761, "POINT_X": 357862.944056, "POINT_Y": 4908165.585600, "TIPO_ADSL": "NO", "Desc_TIPO": "NO Adsl" }, "geometry": { "type": "Point", "coordinates": [ 7.217761, 44.312847 ] } }
,
{ "type": "Feature", "properties": { "ID_Central": 15.000000, "CLLI_SEDE": "ALESITBF", "NOME_CENTR": "AL D4 SCALO", "COMUNE": "ALESSANDRIA", "ISTAT_COMU": "006003", "INDIRIZZO": "VIA EINAUDI", "LATITUDINE": 44.899150, "LONGITUDIN": 8.581330, "POINT_X": 466944.563683, "POINT_Y": 4971832.591200, "TIPO_ADSL": "NO", "Desc_TIPO": "NO Adsl" }, "geometry": { "type": "Point", "coordinates": [ 8.581330, 44.899150 ] } }
,
{ "type": "Feature", "properties": { "ID_Central": 16.000000, "CLLI_SEDE": "ALESITDD", "NOME_CENTR": "AL LOBBI 2", "COMUNE": "ALESSANDRIA", "ISTAT_COMU": "006003", "INDIRIZZO": "VIA POGGIO 40", "LATITUDINE": 44.932018, "LONGITUDIN": 8.715493, "POINT_X": 477549.995647, "POINT_Y": 4975437.873570, "TIPO_ADSL": "ADSL_M", "Desc_TIPO": "ADSL Mini" }, "geometry": { "type": "Point", "coordinates": [ 8.715493, 44.932018 ] } }
,
{ "type": "Feature", "properties": { "ID_Central": 17.000000, "CLLI_SEDE": "ALESITBK", "NOME_CENTR": "AL S. BARTOLOMEO", "COMUNE": "ALESSANDRIA", "ISTAT_COMU": "006003", "INDIRIZZO": "FALAMERA", "LATITUDINE": 44.957993, "LONGITUDIN": 8.642945, "POINT_X": 471838.048533, "POINT_Y": 4978345.975590, "TIPO_ADSL": "ADSL_M", "Desc_TIPO": "ADSL Mini" }, "geometry": { "type": "Point", "coordinates": [ 8.642945, 44.957993 ] } }
,
{ "type": "Feature", "properties": { "ID_Central": 18.000000, "CLLI_SEDE": "CRESITAA", "NOME_CENTR": "ALA DI STURA", "COMUNE": "ALA DI STURA", "ISTAT_COMU": "001003", "INDIRIZZO": "CHIARDI", "LATITUDINE": 45.315086, "LONGITUDIN": 7.313080, "POINT_X": 367775.804530, "POINT_Y": 5019337.557370, "TIPO_ADSL": "ADSL_M", "Desc_TIPO": "ADSL Mini" }, "geometry": { "type": "Point", "coordinates": [ 7.313080, 45.315086 ] } }
,
{ "type": "Feature", "properties": { "ID_Central": 19.000000, "CLLI_SEDE": "VARAITBT", "NOME_CENTR": "ALAGNA VALSESIA 2", "COMUNE": "ALAGNA VALSESIA", "ISTAT_COMU": "002002", "INDIRIZZO": "VIA CIRCONVALLAZIONE S.N.", "LATITUDINE": 0.000000, "LONGITUDIN": 0.000000, "POINT_X": 417504.860475, "POINT_Y": 5078195.800160, "TIPO_ADSL": "ADSL_1", "Desc_TIPO": "ADSL (8 mega)" }, "geometry": { "type": "Point", "coordinates": [ 7.937436, 45.852387 ] } }
,
{ "type": "Feature", "properties": { "ID_Central": 20.000000, "CLLI_SEDE": "ALBAITAM", "NOME_CENTR": "ALBA", "COMUNE": "ALBA", "ISTAT_COMU": "004003", "INDIRIZZO": "XX SETTEMBRE 2", "LATITUDINE": 44.698532, "LONGITUDIN": 8.033229, "POINT_X": 423405.120074, "POINT_Y": 4949916.564830, "TIPO_ADSL": "ADSL_2P", "Desc_TIPO": "ADSL 2+ (24 mega)" }, "geometry": { "type": "Point", "coordinates": [ 8.033229, 44.698532 ] } }
,
{ "type": "Feature", "properties": { "ID_Central": 21.000000, "CLLI_SEDE": "ALBAITBP", "NOME_CENTR": "ALBA BIGLINI", "COMUNE": "ALBA", "ISTAT_COMU": "004003", "INDIRIZZO": "BG.TA BIGLINI 1 ARM. 3335", "LATITUDINE": 44.703102, "LONGITUDIN": 7.979574, "POINT_X": 419160.508378, "POINT_Y": 4950476.062390, "TIPO_ADSL": "NO", "Desc_TIPO": "NO Adsl" }, "geometry": { "type": "Point", "coordinates": [ 7.979574, 44.703102 ] } }
,
{ "type": "Feature", "properties": { "ID_Central": 22.000000, "CLLI_SEDE": "ALBAITAL", "NOME_CENTR": "ALBA S. CASSIANO", "COMUNE": "ALBA", "ISTAT_COMU": "004003", "INDIRIZZO": "DARIO SCAGLIONE", "LATITUDINE": 44.691479, "LONGITUDIN": 8.022790, "POINT_X": 422568.687500, "POINT_Y": 4949143.000000, "TIPO_ADSL": "ADSL_2P", "Desc_TIPO": "ADSL 2+ (24 mega)" }, "geometry": { "type": "Point", "coordinates": [ 8.022790, 44.691479 ] } }
,
{ "type": "Feature", "properties": { "ID_Central": 23.000000, "CLLI_SEDE": "VERCITAT", "NOME_CENTR": "ALBANO VERCELLESE", "COMUNE": "ALBANO VERCELLESE", "ISTAT_COMU": "002003", "INDIRIZZO": "C.SO UMBERTO I 53", "LATITUDINE": 45.425537, "LONGITUDIN": 8.382399, "POINT_X": 451685.261350, "POINT_Y": 5030409.430050, "TIPO_ADSL": "NO", "Desc_TIPO": "NO Adsl" }, "geometry": { "type": "Point", "coordinates": [ 8.382399, 45.425537 ] } }
,
{ "type": "Feature", "properties": { "ID_Central": 24.000000, "CLLI_SEDE": "ALBAITAX", "NOME_CENTR": "ALBARETTO DELLA TORRE", "COMUNE": "ALBARETTO DELLA TORRE", "ISTAT_COMU": "004004", "INDIRIZZO": "UMBERTO", "LATITUDINE": 44.591763, "LONGITUDIN": 8.069236, "POINT_X": 426122.457192, "POINT_Y": 4938023.367740, "TIPO_ADSL": "ADSL_M", "Desc_TIPO": "ADSL Mini" }, "geometry": { "type": "Point", "coordinates": [ 8.069236, 44.591763 ] } }
,
{ "type": "Feature", "properties": { "ID_Central": 25.000000, "CLLI_SEDE": "IVREITAA", "NOME_CENTR": "ALBIANO D'IVREA", "COMUNE": "ALBIANO D'IVREA", "ISTAT_COMU": "001004", "INDIRIZZO": "VICOLO TAGLIANTI 3", "LATITUDINE": 45.433899, "LONGITUDIN": 7.948872, "POINT_X": 417782.752007, "POINT_Y": 5031690.238840, "TIPO_ADSL": "ADSL_1", "Desc_TIPO": "ADSL (8 mega)" }, "geometry": { "type": "Point", "coordinates": [ 7.948872, 45.433899 ] } }
,
{ "type": "Feature", "properties": { "ID_Central": 26.000000, "CLLI_SEDE": "CDBOITAA", "NOME_CENTR": "ALBUGNANO", "COMUNE": "ALBUGNANO", "ISTAT_COMU": "005002", "INDIRIZZO": "GELSOMINO 6", "LATITUDINE": 45.078125, "LONGITUDIN": 7.971179, "POINT_X": 419023.442312, "POINT_Y": 4992143.966440, "TIPO_ADSL": "ADSL_M", "Desc_TIPO": "ADSL Mini" }, "geometry": { "type": "Point", "coordinates": [ 7.971179, 45.078125 ] } }
,
{ "type": "Feature", "properties": { "ID_Central": 27.000000, "CLLI_SEDE": "ALESITAJ", "NOME_CENTR": "ALESSANDRIA", "COMUNE": "ALESSANDRIA", "ISTAT_COMU": "006003", "INDIRIZZO": "VIA TRIPOLI 18", "LATITUDINE": 44.911088, "LONGITUDIN": 8.618756, "POINT_X": 469905.744062, "POINT_Y": 4973144.158410, "TIPO_ADSL": "ADSL_2P", "Desc_TIPO": "ADSL 2+ (24 mega)" }, "geometry": { "type": "Point", "coordinates": [ 8.618756, 44.911088 ] } }
,
{ "type": "Feature", "properties": { "ID_Central": 28.000000, "CLLI_SEDE": "ALESITGX", "NOME_CENTR": "ALESSANDRIA CITTADELLA", "COMUNE": "ALESSANDRIA", "ISTAT_COMU": "006003", "INDIRIZZO": "VIA TIZIANO VECELLIO->", "LATITUDINE": 0.000000, "LONGITUDIN": 0.000000, "POINT_X": 0.000000, "POINT_Y": 0.000000, "TIPO_ADSL": "ADSL_2P", "Desc_TIPO": "ADSL 2+ (24 mega)" }, "geometry": { "type": "Point", "coordinates": [ 4.511256, 0.000000 ] } }
,
{ "type": "Feature", "properties": { "ID_Central": 29.000000, "CLLI_SEDE": "ALESITAB", "NOME_CENTR": "ALESSANDRIA CRISTO", "COMUNE": "ALESSANDRIA", "ISTAT_COMU": "006003", "INDIRIZZO": "VIA BONARDI 16", "LATITUDINE": 44.899804, "LONGITUDIN": 8.606697, "POINT_X": 468947.766921, "POINT_Y": 4971895.180090, "TIPO_ADSL": "ADSL_2P", "Desc_TIPO": "ADSL 2+ (24 mega)" }, "geometry": { "type": "Point", "coordinates": [ 8.606697, 44.899804 ] } }
,
{ "type": "Feature", "properties": { "ID_Central": 30.000000, "CLLI_SEDE": "ALESITCH", "NOME_CENTR": "ALESSANDRIA CRISTO 2", "COMUNE": "ALESSANDRIA", "ISTAT_COMU": "006003", "INDIRIZZO": "V. DEL LEGNO -D3", "LATITUDINE": 44.891600, "LONGITUDIN": 8.615950, "POINT_X": 469673.964019, "POINT_Y": 4970980.381610, "TIPO_ADSL": "NO", "Desc_TIPO": "NO Adsl" }, "geometry": { "type": "Point", "coordinates": [ 8.615950, 44.891600 ] } }
,
{ "type": "Feature", "properties": { "ID_Central": 31.000000, "CLLI_SEDE": "ALESITAK", "NOME_CENTR": "ALESSANDRIA ORTI", "COMUNE": "ALESSANDRIA", "ISTAT_COMU": "006003", "INDIRIZZO": "VIALE T.MICHEL 2", "LATITUDINE": 44.923691, "LONGITUDIN": 8.634609, "POINT_X": 471163.361560, "POINT_Y": 4974538.463570, "TIPO_ADSL": "ADSL_2P", "Desc_TIPO": "ADSL 2+ (24 mega)" }, "geometry": { "type": "Point", "coordinates": [ 8.634609, 44.923691 ] } }
,
{ "type": "Feature", "properties": { "ID_Central": 32.000000, "CLLI_SEDE": "MOASITBR", "NOME_CENTR": "ALFIANO NATTA 2", "COMUNE": "ALFIANO NATTA", "ISTAT_COMU": "006004", "INDIRIZZO": "V. MONTALDO FRONTE CIV.17", "LATITUDINE": 45.049248, "LONGITUDIN": 8.207143, "POINT_X": 437564.295557, "POINT_Y": 4988726.989030, "TIPO_ADSL": "ADSL_M", "Desc_TIPO": "ADSL Mini" }, "geometry": { "type": "Point", "coordinates": [ 8.207143, 45.049248 ] } }
,
{ "type": "Feature", "properties": { "ID_Central": 33.000000, "CLLI_SEDE": "ACTEITAU", "NOME_CENTR": "ALICE BEL COLLE", "COMUNE": "ALICE BEL COLLE", "ISTAT_COMU": "006005", "INDIRIZZO": "SARACCO", "LATITUDINE": 44.725651, "LONGITUDIN": 8.449116, "POINT_X": 456375.208221, "POINT_Y": 4952622.024350, "TIPO_ADSL": "ADSL_M", "Desc_TIPO": "ADSL Mini" }, "geometry": { "type": "Point", "coordinates": [ 8.449116, 44.725651 ] } }
,
{ "type": "Feature", "properties": { "ID_Central": 34.000000, "CLLI_SEDE": "ACTEITBR", "NOME_CENTR": "ALICE BEL COLLE STAZIONE", "COMUNE": "ALICE BEL COLLE", "ISTAT_COMU": "006005", "INDIRIZZO": "LOC. STAZIONE", "LATITUDINE": 44.726340, "LONGITUDIN": 8.450470, "POINT_X": 456482.948812, "POINT_Y": 4952697.835260, "TIPO_ADSL": "NO", "Desc_TIPO": "NO Adsl" }, "geometry": { "type": "Point", "coordinates": [ 8.450470, 44.726340 ] } }
,
{ "type": "Feature", "properties": { "ID_Central": 35.000000, "CLLI_SEDE": "SANTITAA", "NOME_CENTR": "ALICE CASTELLO", "COMUNE": "ALICE CASTELLO", "ISTAT_COMU": "002004", "INDIRIZZO": "ITALIA", "LATITUDINE": 45.367451, "LONGITUDIN": 8.075759, "POINT_X": 427622.780699, "POINT_Y": 5024186.298270, "TIPO_ADSL": "ADSL_1", "Desc_TIPO": "ADSL (8 mega)" }, "geometry": { "type": "Point", "coordinates": [ 8.075759, 45.367451 ] } }
,
{ "type": "Feature", "properties": { "ID_Central": 36.000000, "CLLI_SEDE": "SANTITAV", "NOME_CENTR": "ALICE CASTELLO CAVAGLIA'", "COMUNE": "ALICE CASTELLO", "ISTAT_COMU": "002004", "INDIRIZZO": "VIA CAVAGLIA' 14", "LATITUDINE": 45.372300, "LONGITUDIN": 8.073430, "POINT_X": 427446.627018, "POINT_Y": 5024727.098240, "TIPO_ADSL": "NO", "Desc_TIPO": "NO Adsl" }, "geometry": { "type": "Point", "coordinates": [ 8.073430, 45.372300 ] } }
,
{ "type": "Feature", "properties": { "ID_Central": 37.000000, "CLLI_SEDE": "IVREITAB", "NOME_CENTR": "ALICE SUPERIORE", "COMUNE": "ALICE SUPERIORE", "ISTAT_COMU": "001005", "INDIRIZZO": "CAVALICE", "LATITUDINE": 45.467224, "LONGITUDIN": 7.901033, "POINT_X": 414091.500925, "POINT_Y": 5035442.540720, "TIPO_ADSL": "ADSL_M", "Desc_TIPO": "ADSL Mini" }, "geometry": { "type": "Point", "coordinates": [ 7.901033, 45.467224 ] } }
,
{ "type": "Feature", "properties": { "ID_Central": 38.000000, "CLLI_SEDE": "IVREITCE", "NOME_CENTR": "ALICE SUPERIORE PECCO", "COMUNE": "PECCO", "ISTAT_COMU": "001182", "INDIRIZZO": "VIA ROMA N? 8", "LATITUDINE": 45.451930, "LONGITUDIN": 7.777360, "POINT_X": 404397.903555, "POINT_Y": 5033883.082500, "TIPO_ADSL": "NO", "Desc_TIPO": "NO Adsl" }, "geometry": { "type": "Point", "coordinates": [ 7.777360, 45.451930 ] } }
,
{ "type": "Feature", "properties": { "ID_Central": 39.000000, "CLLI_SEDE": "TRTOITBF", "NOME_CENTR": "ALLUVIONI CAMBIO'", "COMUNE": "ALLUVIONI CAMBIO'", "ISTAT_COMU": "006006", "INDIRIZZO": "PZA DELLA PESA", "LATITUDINE": 45.002650, "LONGITUDIN": 8.795730, "POINT_X": 483901.141501, "POINT_Y": 4983265.075160, "TIPO_ADSL": "NO", "Desc_TIPO": "NO Adsl" }, "geometry": { "type": "Point", "coordinates": [ 8.795730, 45.002650 ] } }
,
{ "type": "Feature", "properties": { "ID_Central": 40.000000, "CLLI_SEDE": "MONDITAP", "NOME_CENTR": "ALMA", "COMUNE": "FRABOSA SOTTANA", "ISTAT_COMU": "004091", "INDIRIZZO": "PROVINCIALE 37", "LATITUDINE": 44.325119, "LONGITUDIN": 7.795545, "POINT_X": 403962.589011, "POINT_Y": 4908689.498100, "TIPO_ADSL": "ADSL_M", "Desc_TIPO": "ADSL Mini" }, "geometry": { "type": "Point", "coordinates": [ 7.795545, 44.325119 ] } }
,
{ "type": "Feature", "properties": { "ID_Central": 41.000000, "CLLI_SEDE": "AVIGITAA", "NOME_CENTR": "ALMESE", "COMUNE": "ALMESE", "ISTAT_COMU": "001006", "INDIRIZZO": "VIGLIANIS 17", "LATITUDINE": 45.117780, "LONGITUDIN": 7.394210, "POINT_X": 373698.794176, "POINT_Y": 4997288.636730, "TIPO_ADSL": "ADSL_2P", "Desc_TIPO": "ADSL 2+ (24 mega)" }, "geometry": { "type": "Point", "coordinates": [ 7.394210, 45.117780 ] } }
,
{ "type": "Feature", "properties": { "ID_Central": 42.000000, "CLLI_SEDE": "AVIGITBA", "NOME_CENTR": "ALMESE S. STEFANO", "COMUNE": "ALMESE", "ISTAT_COMU": "001006", "INDIRIZZO": "V. S. DTEFANO 22", "LATITUDINE": 45.114055, "LONGITUDIN": 7.411931, "POINT_X": 375084.478781, "POINT_Y": 4996847.287750, "TIPO_ADSL": "NO", "Desc_TIPO": "NO Adsl" }, "geometry": { "type": "Point", "coordinates": [ 7.411931, 45.114055 ] } }
,
{ "type": "Feature", "properties": { "ID_Central": 43.000000, "CLLI_SEDE": "SCOPITAC", "NOME_CENTR": "ALPE MERA", "COMUNE": "SCOPELLO", "ISTAT_COMU": "002135", "INDIRIZZO": "LYSKAM", "LATITUDINE": 45.746082, "LONGITUDIN": 8.087034, "POINT_X": 428984.333480, "POINT_Y": 5066241.357970, "TIPO_ADSL": "NO", "Desc_TIPO": "NO Adsl" }, "geometry": { "type": "Point", "coordinates": [ 8.087034, 45.746082 ] } }
,
{ "type": "Feature", "properties": { "ID_Central": 44.000000, "CLLI_SEDE": "POCAITAG", "NOME_CENTR": "ALPETTE", "COMUNE": "ALPETTE", "ISTAT_COMU": "001007", "INDIRIZZO": "SAN GIACOMO", "LATITUDINE": 45.407776, "LONGITUDIN": 7.576928, "POINT_X": 388638.721376, "POINT_Y": 5029235.703230, "TIPO_ADSL": "ADSL_M", "Desc_TIPO": "ADSL Mini" }, "geometry": { "type": "Point", "coordinates": [ 7.576928, 45.407776 ] } }
,
{ "type": "Feature", "properties": { "ID_Central": 45.000000, "CLLI_SEDE": "ALPIITAD", "NOME_CENTR": "ALPIGNANO", "COMUNE": "ALPIGNANO", "ISTAT_COMU": "001008", "INDIRIZZO": "STR ANTICA DI PIANEZZA 59", "LATITUDINE": 45.099592, "LONGITUDIN": 7.532627, "POINT_X": 384549.116075, "POINT_Y": 4995061.238920, "TIPO_ADSL": "ADSL_2P", "Desc_TIPO": "ADSL 2+ (24 mega)" }, "geometry": { "type": "Point", "coordinates": [ 7.532627, 45.099592 ] } }
,
{ "type": "Feature", "properties": { "ID_Central": 46.000000, "CLLI_SEDE": "RIVOITAX", "NOME_CENTR": "ALPIGNANO 2", "COMUNE": "ALPIGNANO", "ISTAT_COMU": "001008", "INDIRIZZO": "VIA DELLA COSTA 63", "LATITUDINE": 45.086256, "LONGITUDIN": 7.513790, "POINT_X": 383039.821243, "POINT_Y": 4993606.787470, "TIPO_ADSL": "NO", "Desc_TIPO": "NO Adsl" }, "geometry": { "type": "Point", "coordinates": [ 7.513790, 45.086256 ] } }
,
{ "type": "Feature", "properties": { "ID_Central": 47.000000, "CLLI_SEDE": "RIVOITAW", "NOME_CENTR": "ALPIGNANO 3", "COMUNE": "ALPIGNANO", "ISTAT_COMU": "001008", "INDIRIZZO": "VIA XXV APRILE 2", "LATITUDINE": 45.089021, "LONGITUDIN": 7.524666, "POINT_X": 383901.331325, "POINT_Y": 4993898.280000, "TIPO_ADSL": "NO", "Desc_TIPO": "NO Adsl" }, "geometry": { "type": "Point", "coordinates": [ 7.524666, 45.089021 ] } }
,
{ "type": "Feature", "properties": { "ID_Central": 48.000000, "CLLI_SEDE": "VIMOITAD", "NOME_CENTR": "ALTAVILLA MONFERRATO", "COMUNE": "ALTAVILLA MONFERRATO", "ISTAT_COMU": "006007", "INDIRIZZO": "LOCALITA' CITTADELLA 2", "LATITUDINE": 44.989925, "LONGITUDIN": 8.383517, "POINT_X": 451403.193351, "POINT_Y": 4982016.035410, "TIPO_ADSL": "NO", "Desc_TIPO": "NO Adsl" }, "geometry": { "type": "Point", "coordinates": [ 8.383517, 44.989925 ] } }
,
{ "type": "Feature", "properties": { "ID_Central": 49.000000, "CLLI_SEDE": "TORIITQD", "NOME_CENTR": "ALTESSANO-VENARIA MA0001", "COMUNE": "VENARIA REALE", "ISTAT_COMU": "001292", "INDIRIZZO": "V.VITTORIO ANG. V.GIROTTI", "LATITUDINE": 0.000000, "LONGITUDIN": 0.000000, "POINT_X": 0.000000, "POINT_Y": 0.000000, "TIPO_ADSL": "ADSL_1", "Desc_TIPO": "ADSL (8 mega)" }, "geometry": { "type": "Point", "coordinates": [ 4.511256, 0.000000 ] } }
,
{ "type": "Feature", "properties": { "ID_Central": 50.000000, "CLLI_SEDE": "TORIITQE", "NOME_CENTR": "ALTESSANO-VENARIA MA0002", "COMUNE": "VENARIA REALE", "ISTAT_COMU": "001292", "INDIRIZZO": "V.VITTORIO ANG. V.SARAGAT", "LATITUDINE": 0.000000, "LONGITUDIN": 0.000000, "POINT_X": 0.000000, "POINT_Y": 0.000000, "TIPO_ADSL": "ADSL_1", "Desc_TIPO": "ADSL (8 mega)" }, "geometry": { "type": "Point", "coordinates": [ 4.511256, 0.000000 ] } }
,
{ "type": "Feature", "properties": { "ID_Central": 51.000000, "CLLI_SEDE": "GOZZITAA", "NOME_CENTR": "AMENO", "COMUNE": "AMENO", "ISTAT_COMU": "003002", "INDIRIZZO": "DAMIANO CHIESA", "LATITUDINE": 45.788536, "LONGITUDIN": 8.435745, "POINT_X": 456142.276733, "POINT_Y": 5070707.569860, "TIPO_ADSL": "ADSL_M", "Desc_TIPO": "ADSL Mini" }, "geometry": { "type": "Point", "coordinates": [ 8.435745, 45.788536 ] } }
,
{ "type": "Feature", "properties": { "ID_Central": 52.000000, "CLLI_SEDE": "CHERITAX", "NOME_CENTR": "ANDEZENO 2", "COMUNE": "ANDEZENO", "ISTAT_COMU": "001009", "INDIRIZZO": "STRADA CESOLE", "LATITUDINE": 45.035530, "LONGITUDIN": 7.868078, "POINT_X": 410842.356727, "POINT_Y": 4987520.564990, "TIPO_ADSL": "ADSL_1", "Desc_TIPO": "ADSL (8 mega)" }, "geometry": { "type": "Point", "coordinates": [ 7.868078, 45.035530 ] } }
,
{ "type": "Feature", "properties": { "ID_Central": 53.000000, "CLLI_SEDE": "", "NOME_CENTR": "ANDORNO MICCA", "COMUNE": "SAGLIANO MICCA", "ISTAT_COMU": "096056", "INDIRIZZO": "VIA NAVA, 4", "LATITUDINE": 45.615967, "LONGITUDIN": 8.048913, "POINT_X": 425847.374152, "POINT_Y": 5051820.084990, "TIPO_ADSL": "ADSL_1", "Desc_TIPO": "ADSL (8 mega)" }, "geometry": { "type": "Point", "coordinates": [ 8.048913, 45.615967 ] } }
,
{ "type": "Feature", "properties": { "ID_Central": 54.000000, "CLLI_SEDE": "IVREITAQ", "NOME_CENTR": "ANDRATE", "COMUNE": "ANDRATE", "ISTAT_COMU": "001010", "INDIRIZZO": "AOSTA 16", "LATITUDINE": 45.527973, "LONGITUDIN": 7.872522, "POINT_X": 411957.475997, "POINT_Y": 5042222.427160, "TIPO_ADSL": "ADSL_M", "Desc_TIPO": "ADSL Mini" }, "geometry": { "type": "Point", "coordinates": [ 7.872522, 45.527973 ] } }
,
{ "type": "Feature", "properties": { "ID_Central": 55.000000, "CLLI_SEDE": "TOPEITAA", "NOME_CENTR": "ANGROGNA", "COMUNE": "ANGROGNA", "ISTAT_COMU": "001011", "INDIRIZZO": "PZA PIERRE ODIN->2", "LATITUDINE": 44.841808, "LONGITUDIN": 7.226185, "POINT_X": 359811.925614, "POINT_Y": 4966907.969470, "TIPO_ADSL": "ADSL_M", "Desc_TIPO": "ADSL Mini" }, "geometry": { "type": "Point", "coordinates": [ 7.226185, 44.841808 ] } }
,
{ "type": "Feature", "properties": { "ID_Central": 56.000000, "CLLI_SEDE": "PINEITBX", "NOME_CENTR": "ANGROGNA 2", "COMUNE": "ANGROGNA", "ISTAT_COMU": "001011", "INDIRIZZO": "LOC SERRE->21", "LATITUDINE": 44.852352, "LONGITUDIN": 7.214389, "POINT_X": 358905.413179, "POINT_Y": 4968099.672850, "TIPO_ADSL": "NO", "Desc_TIPO": "NO Adsl" }, "geometry": { "type": "Point", "coordinates": [ 7.214389, 44.852352 ] } }
,
{ "type": "Feature", "properties": { "ID_Central": 57.000000, "CLLI_SEDE": "VARAITAJ", "NOME_CENTR": "ANICETI", "COMUNE": "VARALLO", "ISTAT_COMU": "002156", "INDIRIZZO": "S.PROVINCIALE PER FOBELLO", "LATITUDINE": 0.000000, "LONGITUDIN": 0.000000, "POINT_X": 0.000000, "POINT_Y": 0.000000, "TIPO_ADSL": "NO", "Desc_TIPO": "NO Adsl" }, "geometry": { "type": "Point", "coordinates": [ 4.511256, 0.000000 ] } }
,
{ "type": "Feature", "properties": { "ID_Central": 58.000000, "CLLI_SEDE": "ASTIITCG", "NOME_CENTR": "ANTIGNANO 2", "COMUNE": "ANTIGNANO", "ISTAT_COMU": "005003", "INDIRIZZO": "V. MARCONI 12", "LATITUDINE": 44.844479, "LONGITUDIN": 8.135200, "POINT_X": 431656.378727, "POINT_Y": 4966037.956040, "TIPO_ADSL": "ADSL_M", "Desc_TIPO": "ADSL Mini" }, "geometry": { "type": "Point", "coordinates": [ 8.135200, 44.844479 ] } }
,
{ "type": "Feature", "properties": { "ID_Central": 59.000000, "CLLI_SEDE": "DOMOITAG", "NOME_CENTR": "ANTRONA SCHIERANCO", "COMUNE": "ANTRONA SCHIERANCO", "ISTAT_COMU": "103001", "INDIRIZZO": "S. MARIA 3 (P.COMUNALE)", "LATITUDINE": 46.060482, "LONGITUDIN": 8.115299, "POINT_X": 431570.330055, "POINT_Y": 5101147.929030, "TIPO_ADSL": "ADSL_M", "Desc_TIPO": "ADSL Mini" }, "geometry": { "type": "Point", "coordinates": [ 8.115299, 46.060482 ] } }
,
{ "type": "Feature", "properties": { "ID_Central": 60.000000, "CLLI_SEDE": "OMEGITAQ", "NOME_CENTR": "ANZOLA D'OSSOLA", "COMUNE": "ANZOLA D'OSSOLA", "ISTAT_COMU": "103002", "INDIRIZZO": "MEGOLO 12", "LATITUDINE": 45.989706, "LONGITUDIN": 8.345890, "POINT_X": 449341.373348, "POINT_Y": 5093111.708900, "TIPO_ADSL": "ADSL_M", "Desc_TIPO": "ADSL Mini" }, "geometry": { "type": "Point", "coordinates": [ 8.345890, 45.989706 ] } }
,
{ "type": "Feature", "properties": { "ID_Central": 61.000000, "CLLI_SEDE": "MOASITBW", "NOME_CENTR": "ARAMENGO 2", "COMUNE": "ARAMENGO", "ISTAT_COMU": "005004", "INDIRIZZO": "VIA GIUSEPPE MAZZINI 9", "LATITUDINE": 45.102203, "LONGITUDIN": 8.002332, "POINT_X": 421508.424617, "POINT_Y": 4994788.062150, "TIPO_ADSL": "NO", "Desc_TIPO": "NO Adsl" }, "geometry": { "type": "Point", "coordinates": [ 8.002332, 45.102203 ] } }
,
{ "type": "Feature", "properties": { "ID_Central": 62.000000, "CLLI_SEDE": "ARBOITAA", "NOME_CENTR": "ARBORIO", "COMUNE": "ARBORIO", "ISTAT_COMU": "002006", "INDIRIZZO": "REG. GABIACCIO", "LATITUDINE": 45.497730, "LONGITUDIN": 8.387702, "POINT_X": 452161.208458, "POINT_Y": 5038426.629820, "TIPO_ADSL": "ADSL_M", "Desc_TIPO": "ADSL Mini" }, "geometry": { "type": "Point", "coordinates": [ 8.387702, 45.497730 ] } }
,
{ "type": "Feature", "properties": { "ID_Central": 63.000000, "CLLI_SEDE": "RICAITBE", "NOME_CENTR": "ARGENTERA 2", "COMUNE": "RIVAROLO CANAVESE", "ISTAT_COMU": "001217", "INDIRIZZO": "VIA SCOGNIAMIGLIO 27", "LATITUDINE": 45.329300, "LONGITUDIN": 7.725270, "POINT_X": 400109.015096, "POINT_Y": 5020322.820080, "TIPO_ADSL": "ADSL_M", "Desc_TIPO": "ADSL Mini" }, "geometry": { "type": "Point", "coordinates": [ 7.725270, 45.329300 ] } }
,
{ "type": "Feature", "properties": { "ID_Central": 64.000000, "CLLI_SEDE": "CHERITAB", "NOME_CENTR": "ARIGNANO", "COMUNE": "ARIGNANO", "ISTAT_COMU": "001012", "INDIRIZZO": "VIA ROBIOLA 35", "LATITUDINE": 45.042093, "LONGITUDIN": 7.903282, "POINT_X": 413625.184835, "POINT_Y": 4988211.399980, "TIPO_ADSL": "ADSL_M", "Desc_TIPO": "ADSL Mini" }, "geometry": { "type": "Point", "coordinates": [ 7.903282, 45.042093 ] } }
,
{ "type": "Feature", "properties": { "ID_Central": 65.000000, "CLLI_SEDE": "VERBITAD", "NOME_CENTR": "ARIZZANO", "COMUNE": "ARIZZANO", "ISTAT_COMU": "103003", "INDIRIZZO": "VIA NUOVA INTRA-PREMENO", "LATITUDINE": 45.952762, "LONGITUDIN": 8.580909, "POINT_X": 467521.219195, "POINT_Y": 5088884.459860, "TIPO_ADSL": "ADSL_1", "Desc_TIPO": "ADSL (8 mega)" }, "geometry": { "type": "Point", "coordinates": [ 8.580909, 45.952762 ] } }
,
{ "type": "Feature", "properties": { "ID_Central": 66.000000, "CLLI_SEDE": "VERBITCW", "NOME_CENTR": "ARIZZANO 2", "COMUNE": "ARIZZANO", "ISTAT_COMU": "103003", "INDIRIZZO": "VIA NUOVA INTRA PREMENO->94", "LATITUDINE": 45.953080, "LONGITUDIN": 8.579969, "POINT_X": 467448.556966, "POINT_Y": 5088920.141620, "TIPO_ADSL": "NO", "Desc_TIPO": "NO Adsl" }, "geometry": { "type": "Point", "coordinates": [ 8.579969, 45.953080 ] } }
,
{ "type": "Feature", "properties": { "ID_Central": 67.000000, "CLLI_SEDE": "GOZZITAE", "NOME_CENTR": "ARMENO", "COMUNE": "ARMENO", "ISTAT_COMU": "003006", "INDIRIZZO": "BADANELLI 15", "LATITUDINE": 45.823746, "LONGITUDIN": 8.437280, "POINT_X": 456289.163908, "POINT_Y": 5074618.716030, "TIPO_ADSL": "ADSL_1", "Desc_TIPO": "ADSL (8 mega)" }, "geometry": { "type": "Point", "coordinates": [ 8.437280, 45.823746 ] } }
,
{ "type": "Feature", "properties": { "ID_Central": 68.000000, "CLLI_SEDE": "GOZZITAN", "NOME_CENTR": "ARMENO SUGNA", "COMUNE": "ARMENO", "ISTAT_COMU": "003006", "INDIRIZZO": "VIA SUGNA 5", "LATITUDINE": 45.822780, "LONGITUDIN": 8.439010, "POINT_X": 456422.792658, "POINT_Y": 5074510.445130, "TIPO_ADSL": "NO", "Desc_TIPO": "NO Adsl" }, "geometry": { "type": "Point", "coordinates": [ 8.439010, 45.822780 ] } }
,
{ "type": "Feature", "properties": { "ID_Central": 69.000000, "CLLI_SEDE": "OMEGITAA", "NOME_CENTR": "AROLA", "COMUNE": "AROLA", "ISTAT_COMU": "103004", "INDIRIZZO": "DEL CANTONE", "LATITUDINE": 45.808266, "LONGITUDIN": 8.357577, "POINT_X": 450084.189842, "POINT_Y": 5072945.539990, "TIPO_ADSL": "NO", "Desc_TIPO": "NO Adsl" }, "geometry": { "type": "Point", "coordinates": [ 8.357577, 45.808266 ] } }
,
{ "type": "Feature", "properties": { "ID_Central": 70.000000, "CLLI_SEDE": "ARONITAN", "NOME_CENTR": "ARONA CENTRO", "COMUNE": "ARONA", "ISTAT_COMU": "003008", "INDIRIZZO": "MARTIRI DELLA LIBERTA'", "LATITUDINE": 45.759564, "LONGITUDIN": 8.555480, "POINT_X": 465431.000000, "POINT_Y": 5067430.000000, "TIPO_ADSL": "ADSL_2P", "Desc_TIPO": "ADSL 2+ (24 mega)" }, "geometry": { "type": "Point", "coordinates": [ 8.555480, 45.759564 ] } }
,
{ "type": "Feature", "properties": { "ID_Central": 71.000000, "CLLI_SEDE": "SESCITAH", "NOME_CENTR": "ARQUATA SCRIVIA", "COMUNE": "ARQUATA SCRIVIA", "ISTAT_COMU": "006009", "INDIRIZZO": "STRADA DEL VAPORE 6", "LATITUDINE": 44.691469, "LONGITUDIN": 8.882983, "POINT_X": 490727.929040, "POINT_Y": 4948684.145690, "TIPO_ADSL": "ADSL_1", "Desc_TIPO": "ADSL (8 mega)" }, "geometry": { "type": "Point", "coordinates": [ 8.882983, 44.691469 ] } }
,
{ "type": "Feature", "properties": { "ID_Central": 72.000000, "CLLI_SEDE": "MONDITBG", "NOME_CENTR": "ARTESINA 1", "COMUNE": "FRABOSA SOTTANA", "ISTAT_COMU": "004091", "INDIRIZZO": "CONDOMINIO RODODENDRO", "LATITUDINE": 44.249447, "LONGITUDIN": 7.760237, "POINT_X": 401020.276425, "POINT_Y": 4900326.264170, "TIPO_ADSL": "NO", "Desc_TIPO": "NO Adsl" }, "geometry": { "type": "Point", "coordinates": [ 7.760237, 44.249447 ] } }
,
{ "type": "Feature", "properties": { "ID_Central": 73.000000, "CLLI_SEDE": "MONDITBF", "NOME_CENTR": "ARTESINA 2", "COMUNE": "FRABOSA SOTTANA", "ISTAT_COMU": "004091", "INDIRIZZO": "NELLA PIAZZA", "LATITUDINE": 44.248947, "LONGITUDIN": 7.760039, "POINT_X": 401003.629720, "POINT_Y": 4900270.966210, "TIPO_ADSL": "NO", "Desc_TIPO": "NO Adsl" }, "geometry": { "type": "Point", "coordinates": [ 7.760039, 44.248947 ] } }
,
{ "type": "Feature", "properties": { "ID_Central": 74.000000, "CLLI_SEDE": "BORGITAT", "NOME_CENTR": "ARVA", "COMUNE": "CELLIO", "ISTAT_COMU": "002038", "INDIRIZZO": "FRAZ. ARVA", "LATITUDINE": 45.735410, "LONGITUDIN": 8.315620, "POINT_X": 446754.879555, "POINT_Y": 5064878.143800, "TIPO_ADSL": "NO", "Desc_TIPO": "NO Adsl" }, "geometry": { "type": "Point", "coordinates": [ 8.315620, 45.735410 ] } }
,
{ "type": "Feature", "properties": { "ID_Central": 75.000000, "CLLI_SEDE": "ACTEITBK", "NOME_CENTR": "ARZELLO", "COMUNE": "MELAZZO", "ISTAT_COMU": "006092", "INDIRIZZO": "FRAZIONE ARZELLO", "LATITUDINE": 44.636410, "LONGITUDIN": 8.411930, "POINT_X": 453358.883158, "POINT_Y": 4942729.627300, "TIPO_ADSL": "NO", "Desc_TIPO": "NO Adsl" }, "geometry": { "type": "Point", "coordinates": [ 8.411930, 44.636410 ] } }
,
{ "type": "Feature", "properties": { "ID_Central": 76.000000, "CLLI_SEDE": "VERCITAL", "NOME_CENTR": "ASIGLIANO VERCELLESE", "COMUNE": "ASIGLIANO VERCELLESE", "ISTAT_COMU": "002007", "INDIRIZZO": "CESARE BATTISTI", "LATITUDINE": 45.261730, "LONGITUDIN": 8.408572, "POINT_X": 453599.139976, "POINT_Y": 5012196.070050, "TIPO_ADSL": "ADSL_M", "Desc_TIPO": "ADSL Mini" }, "geometry": { "type": "Point", "coordinates": [ 8.408572, 45.261730 ] } }
,
{ "type": "Feature", "properties": { "ID_Central": 77.000000, "CLLI_SEDE": "ASTIITAQ", "NOME_CENTR": "ASTI", "COMUNE": "ASTI", "ISTAT_COMU": "005005", "INDIRIZZO": "OSPEDALE 2", "LATITUDINE": 44.901058, "LONGITUDIN": 8.208866, "POINT_X": 437539.332706, "POINT_Y": 4972263.660240, "TIPO_ADSL": "ADSL_2P", "Desc_TIPO": "ADSL 2+ (24 mega)" }, "geometry": { "type": "Point", "coordinates": [ 8.208866, 44.901058 ] } }
,
{ "type": "Feature", "properties": { "ID_Central": 78.000000, "CLLI_SEDE": "ASTIITCL", "NOME_CENTR": "ASTI 2", "COMUNE": "ASTI", "ISTAT_COMU": "005005", "INDIRIZZO": "VIA DON BIANCO SNC", "LATITUDINE": 44.897830, "LONGITUDIN": 8.166083, "POINT_X": 434157.869463, "POINT_Y": 4971938.929900, "TIPO_ADSL": "NO", "Desc_TIPO": "NO Adsl" }, "geometry": { "type": "Point", "coordinates": [ 8.166083, 44.897830 ] } }
,
{ "type": "Feature", "properties": { "ID_Central": 79.000000, "CLLI_SEDE": "ASTIITAP", "NOME_CENTR": "ASTI DANTE", "COMUNE": "ASTI", "ISTAT_COMU": "005005", "INDIRIZZO": "CORSO XXV APRILE", "LATITUDINE": 44.905125, "LONGITUDIN": 8.196603, "POINT_X": 436575.593750, "POINT_Y": 4972725.000000, "TIPO_ADSL": "ADSL_2P", "Desc_TIPO": "ADSL 2+ (24 mega)" }, "geometry": { "type": "Point", "coordinates": [ 8.196603, 44.905125 ] } }
,
{ "type": "Feature", "properties": { "ID_Central": 80.000000, "CLLI_SEDE": "ASTIITCM", "NOME_CENTR": "ASTI DANTE MA0001", "COMUNE": "ASTI", "ISTAT_COMU": "005005", "INDIRIZZO": "CORSO IVREA", "LATITUDINE": 0.000000, "LONGITUDIN": 0.000000, "POINT_X": 0.000000, "POINT_Y": 0.000000, "TIPO_ADSL": "NO", "Desc_TIPO": "NO Adsl" }, "geometry": { "type": "Point", "coordinates": [ 4.511256, 0.000000 ] } }
,
{ "type": "Feature", "properties": { "ID_Central": 81.000000, "CLLI_SEDE": "ASTIITCD", "NOME_CENTR": "ASTI PALUCCO", "COMUNE": "ASTI", "ISTAT_COMU": "005005", "INDIRIZZO": "FRAZ. REVIGNANO 89", "LATITUDINE": 44.899720, "LONGITUDIN": 8.149890, "POINT_X": 432881.545486, "POINT_Y": 4972162.144440, "TIPO_ADSL": "NO", "Desc_TIPO": "NO Adsl" }, "geometry": { "type": "Point", "coordinates": [ 8.149890, 44.899720 ] } }
,
{ "type": "Feature", "properties": { "ID_Central": 82.000000, "CLLI_SEDE": "ASTIITAN", "NOME_CENTR": "ASTI S. LAZZARO", "COMUNE": "ASTI", "ISTAT_COMU": "005005", "INDIRIZZO": "CSO CASALE 223", "LATITUDINE": 44.911372, "LONGITUDIN": 8.219706, "POINT_X": 438406.117373, "POINT_Y": 4973401.202900, "TIPO_ADSL": "ADSL_2P", "Desc_TIPO": "ADSL 2+ (24 mega)" }, "geometry": { "type": "Point", "coordinates": [ 8.219706, 44.911372 ] } }
,
{ "type": "Feature", "properties": { "ID_Central": 83.000000, "CLLI_SEDE": "ASTIITCK", "NOME_CENTR": "ASTI S. LAZZARO MA0001", "COMUNE": "ASTI", "ISTAT_COMU": "005005", "INDIRIZZO": "CORSO ALESSANDRIA", "LATITUDINE": 0.000000, "LONGITUDIN": 0.000000, "POINT_X": 0.000000, "POINT_Y": 0.000000, "TIPO_ADSL": "NO", "Desc_TIPO": "NO Adsl" }, "geometry": { "type": "Point", "coordinates": [ 4.511256, 0.000000 ] } }
,
{ "type": "Feature", "properties": { "ID_Central": 84.000000, "CLLI_SEDE": "ASTIITBS", "NOME_CENTR": "AT CASABIANCA", "COMUNE": "ASTI", "ISTAT_COMU": "005005", "INDIRIZZO": "LOCALITA' RIOSCONE", "LATITUDINE": 44.900890, "LONGITUDIN": 8.206810, "POINT_X": 437376.803149, "POINT_Y": 4972246.620870, "TIPO_ADSL": "NO", "Desc_TIPO": "NO Adsl" }, "geometry": { "type": "Point", "coordinates": [ 8.206810, 44.900890 ] } }
,
{ "type": "Feature", "properties": { "ID_Central": 85.000000, "CLLI_SEDE": "ASTIITDM", "NOME_CENTR": "AT CENTRO MA0001", "COMUNE": "ASTI", "ISTAT_COMU": "005005", "INDIRIZZO": "STR POCOLA->65", "LATITUDINE": 0.000000, "LONGITUDIN": 0.000000, "POINT_X": 0.000000, "POINT_Y": 0.000000, "TIPO_ADSL": "ADSL_1", "Desc_TIPO": "ADSL (8 mega)" }, "geometry": { "type": "Point", "coordinates": [ 4.511256, 0.000000 ] } }
,
{ "type": "Feature", "properties": { "ID_Central": 86.000000, "CLLI_SEDE": "ASTIITDN", "NOME_CENTR": "AT CENTRO MA0002", "COMUNE": "ASTI", "ISTAT_COMU": "005005", "INDIRIZZO": "STR POCOLA->65", "LATITUDINE": 0.000000, "LONGITUDIN": 0.000000, "POINT_X": 0.000000, "POINT_Y": 0.000000, "TIPO_ADSL": "ADSL_1", "Desc_TIPO": "ADSL (8 mega)" }, "geometry": { "type": "Point", "coordinates": [ 4.511256, 0.000000 ] } }
,
{ "type": "Feature", "properties": { "ID_Central": 87.000000, "CLLI_SEDE": "ASTIITBJ", "NOME_CENTR": "AT MONTEMARZO", "COMUNE": "ASTI", "ISTAT_COMU": "005005", "INDIRIZZO": "CAPRIS", "LATITUDINE": 44.862579, "LONGITUDIN": 8.254949, "POINT_X": 441138.376742, "POINT_Y": 4967954.825610, "TIPO_ADSL": "ADSL_M", "Desc_TIPO": "ADSL Mini" }, "geometry": { "type": "Point", "coordinates": [ 8.254949, 44.862579 ] } }
,
{ "type": "Feature", "properties": { "ID_Central": 88.000000, "CLLI_SEDE": "VERBITAE", "NOME_CENTR": "AURANO", "COMUNE": "AURANO", "ISTAT_COMU": "103005", "INDIRIZZO": "ROMA", "LATITUDINE": 46.000111, "LONGITUDIN": 8.588325, "POINT_X": 468123.125111, "POINT_Y": 5094142.204040, "TIPO_ADSL": "NO", "Desc_TIPO": "NO Adsl" }, "geometry": { "type": "Point", "coordinates": [ 8.588325, 46.000111 ] } }
,
{ "type": "Feature", "properties": { "ID_Central": 89.000000, "CLLI_SEDE": "AVIGITAJ", "NOME_CENTR": "AVIGLIANA", "COMUNE": "AVIGLIANA", "ISTAT_COMU": "001013", "INDIRIZZO": "CORSO LAGHI 82", "LATITUDINE": 45.081214, "LONGITUDIN": 7.401324, "POINT_X": 374178.027600, "POINT_Y": 4993215.479880, "TIPO_ADSL": "ADSL_2P", "Desc_TIPO": "ADSL 2+ (24 mega)" }, "geometry": { "type": "Point", "coordinates": [ 7.401324, 45.081214 ] } }
,
{ "type": "Feature", "properties": { "ID_Central": 90.000000, "CLLI_SEDE": "AVIGITBF", "NOME_CENTR": "AVIGLIANA MARESCHI", "COMUNE": "AVIGLIANA", "ISTAT_COMU": "001013", "INDIRIZZO": "V. DEI MARESCHI 34-ARM.16", "LATITUDINE": 45.083900, "LONGITUDIN": 7.382500, "POINT_X": 372702.470392, "POINT_Y": 4993543.288880, "TIPO_ADSL": "NO", "Desc_TIPO": "NO Adsl" }, "geometry": { "type": "Point", "coordinates": [ 7.382500, 45.083900 ] } }
,
{ "type": "Feature", "properties": { "ID_Central": 91.000000, "CLLI_SEDE": "AVIGITAL", "NOME_CENTR": "AVIGLIANA NORD", "COMUNE": "AVIGLIANA", "ISTAT_COMU": "001013", "INDIRIZZO": "DEI TESTA", "LATITUDINE": 45.084852, "LONGITUDIN": 7.405575, "POINT_X": 374520.593750, "POINT_Y": 4993613.000000, "TIPO_ADSL": "ADSL_2P", "Desc_TIPO": "ADSL 2+ (24 mega)" }, "geometry": { "type": "Point", "coordinates": [ 7.405575, 45.084852 ] } }
,
{ "type": "Feature", "properties": { "ID_Central": 92.000000, "CLLI_SEDE": "AVIGITBE", "NOME_CENTR": "AVIGLIANA NORD 2", "COMUNE": "AVIGLIANA", "ISTAT_COMU": "001013", "INDIRIZZO": "V. TORINO 162-ARM.08", "LATITUDINE": 45.087170, "LONGITUDIN": 7.397450, "POINT_X": 373886.234553, "POINT_Y": 4993883.131040, "TIPO_ADSL": "NO", "Desc_TIPO": "NO Adsl" }, "geometry": { "type": "Point", "coordinates": [ 7.397450, 45.087170 ] } }
,
{ "type": "Feature", "properties": { "ID_Central": 93.000000, "CLLI_SEDE": "IVREITAP", "NOME_CENTR": "AZEGLIO", "COMUNE": "AZEGLIO", "ISTAT_COMU": "001014", "INDIRIZZO": "STR.COM.PIVERONE-AZEGLIO", "LATITUDINE": 45.424461, "LONGITUDIN": 7.998687, "POINT_X": 421666.093750, "POINT_Y": 5030592.000000, "TIPO_ADSL": "ADSL_1", "Desc_TIPO": "ADSL (8 mega)" }, "geometry": { "type": "Point", "coordinates": [ 7.998687, 45.424461 ] } }
,
{ "type": "Feature", "properties": { "ID_Central": 94.000000, "CLLI_SEDE": "ASTIITAD", "NOME_CENTR": "AZZANO D'ASTI", "COMUNE": "AZZANO D'ASTI", "ISTAT_COMU": "005006", "INDIRIZZO": "PIAZZA PARROCCHIALE 6", "LATITUDINE": 44.874649, "LONGITUDIN": 8.268364, "POINT_X": 442210.288216, "POINT_Y": 4969285.984630, "TIPO_ADSL": "ADSL_M", "Desc_TIPO": "ADSL Mini" }, "geometry": { "type": "Point", "coordinates": [ 8.268364, 44.874649 ] } }
,
{ "type": "Feature", "properties": { "ID_Central": 95.000000, "CLLI_SEDE": "CRODITAB", "NOME_CENTR": "BACENO", "COMUNE": "BACENO", "ISTAT_COMU": "103006", "INDIRIZZO": "ROMA 4", "LATITUDINE": 46.260468, "LONGITUDIN": 8.319098, "POINT_X": 447524.178221, "POINT_Y": 5123213.221240, "TIPO_ADSL": "ADSL_M", "Desc_TIPO": "ADSL Mini" }, "geometry": { "type": "Point", "coordinates": [ 8.319098, 46.260468 ] } }
,
{ "type": "Feature", "properties": { "ID_Central": 96.000000, "CLLI_SEDE": "CEVAITAK", "NOME_CENTR": "BAGNASCO", "COMUNE": "BAGNASCO", "ISTAT_COMU": "004008", "INDIRIZZO": "MUNICIPIO", "LATITUDINE": 44.300014, "LONGITUDIN": 8.039145, "POINT_X": 423353.454569, "POINT_Y": 4905644.495640, "TIPO_ADSL": "ADSL_M", "Desc_TIPO": "ADSL Mini" }, "geometry": { "type": "Point", "coordinates": [ 8.039145, 44.300014 ] } }
,
{ "type": "Feature", "properties": { "ID_Central": 97.000000, "CLLI_SEDE": "DEMOITAB", "NOME_CENTR": "BAGNI DI VINADIO", "COMUNE": "VINADIO", "ISTAT_COMU": "004248", "INDIRIZZO": "REGIONE DELLE TERME", "LATITUDINE": 44.283169, "LONGITUDIN": 7.069762, "POINT_X": 345982.034669, "POINT_Y": 4905136.322190, "TIPO_ADSL": "NO", "Desc_TIPO": "NO Adsl" }, "geometry": { "type": "Point", "coordinates": [ 7.069762, 44.283169 ] } }
,
{ "type": "Feature", "properties": { "ID_Central": 98.000000, "CLLI_SEDE": "BRGEITAB", "NOME_CENTR": "BAGNOLO PIEMONTE", "COMUNE": "BAGNOLO PIEMONTE", "ISTAT_COMU": "004009", "INDIRIZZO": "MADONNINA 3", "LATITUDINE": 44.759693, "LONGITUDIN": 7.315604, "POINT_X": 366689.886549, "POINT_Y": 4957635.885570, "TIPO_ADSL": "ADSL_1", "Desc_TIPO": "ADSL (8 mega)" }, "geometry": { "type": "Point", "coordinates": [ 7.315604, 44.759693 ] } }
,
{ "type": "Feature", "properties": { "ID_Central": 99.000000, "CLLI_SEDE": "IVREITCQ", "NOME_CENTR": "BAIO DORA 2", "COMUNE": "BORGOFRANCO D'IVREA", "ISTAT_COMU": "001030", "INDIRIZZO": "PIAZZA E. BREDDA SNC", "LATITUDINE": 45.508010, "LONGITUDIN": 7.829410, "POINT_X": 408558.619989, "POINT_Y": 5040052.780320, "TIPO_ADSL": "ADSL_M", "Desc_TIPO": "ADSL Mini" }, "geometry": { "type": "Point", "coordinates": [ 7.829410, 45.508010 ] } }
,
{ "type": "Feature", "properties": { "ID_Central": 100.000000, "CLLI_SEDE": "CASMITAA", "NOME_CENTR": "BAIRO", "COMUNE": "BAIRO", "ISTAT_COMU": "001015", "INDIRIZZO": "CORNALETTO 9", "LATITUDINE": 45.386437, "LONGITUDIN": 7.757285, "POINT_X": 402715.726257, "POINT_Y": 5026631.225560, "TIPO_ADSL": "ADSL_M", "Desc_TIPO": "ADSL Mini" }, "geometry": { "type": "Point", "coordinates": [ 7.757285, 45.386437 ] } }
,
{ "type": "Feature", "properties": { "ID_Central": 101.000000, "CLLI_SEDE": "VARAITAN", "NOME_CENTR": "BALANGERA", "COMUNE": "VARALLO", "ISTAT_COMU": "002156", "INDIRIZZO": "LOC. BALANGERA", "LATITUDINE": 45.823860, "LONGITUDIN": 8.213370, "POINT_X": 438896.484109, "POINT_Y": 5074778.275180, "TIPO_ADSL": "NO", "Desc_TIPO": "NO Adsl" }, "geometry": { "type": "Point", "coordinates": [ 8.213370, 45.823860 ] } }
,
{ "type": "Feature", "properties": { "ID_Central": 102.000000, "CLLI_SEDE": "LATOITAA", "NOME_CENTR": "BALANGERO", "COMUNE": "BALANGERO", "ISTAT_COMU": "001016", "INDIRIZZO": "SANT'ANNA", "LATITUDINE": 45.267593, "LONGITUDIN": 7.515371, "POINT_X": 383534.552111, "POINT_Y": 5013749.309970, "TIPO_ADSL": "ADSL_1", "Desc_TIPO": "ADSL (8 mega)" }, "geometry": { "type": "Point", "coordinates": [ 7.515371, 45.267593 ] } }
,
{ "type": "Feature", "properties": { "ID_Central": 103.000000, "CLLI_SEDE": "ASTIITAR", "NOME_CENTR": "BALDICHIERI D'ASTI", "COMUNE": "BALDICHIERI D'ASTI", "ISTAT_COMU": "005007", "INDIRIZZO": "UMBERTO I", "LATITUDINE": 44.906789, "LONGITUDIN": 8.091000, "POINT_X": 428240.824870, "POINT_Y": 4972997.789930, "TIPO_ADSL": "ADSL_1", "Desc_TIPO": "ADSL (8 mega)" }, "geometry": { "type": "Point", "coordinates": [ 8.091000, 44.906789 ] } }
,
{ "type": "Feature", "properties": { "ID_Central": 104.000000, "CLLI_SEDE": "BRAAITAY", "NOME_CENTR": "BALDISSERO 2", "COMUNE": "BALDISSERO D'ALBA", "ISTAT_COMU": "004010", "INDIRIZZO": "VIA ROMA 61", "LATITUDINE": 44.761633, "LONGITUDIN": 7.911929, "POINT_X": 413888.490000, "POINT_Y": 4957047.230000, "TIPO_ADSL": "ADSL_1", "Desc_TIPO": "ADSL (8 mega)" }, "geometry": { "type": "Point", "coordinates": [ 7.911929, 44.761633 ] } }
,
{ "type": "Feature", "properties": { "ID_Central": 105.000000, "CLLI_SEDE": "CASMITAG", "NOME_CENTR": "BALDISSERO CANAVESE", "COMUNE": "BALDISSERO CANAVESE", "ISTAT_COMU": "001017", "INDIRIZZO": "DIETRO LE SCUOLE COMUNALI", "LATITUDINE": 45.409760, "LONGITUDIN": 7.743950, "POINT_X": 401712.297739, "POINT_Y": 5029238.468110, "TIPO_ADSL": "NO", "Desc_TIPO": "NO Adsl" }, "geometry": { "type": "Point", "coordinates": [ 7.743950, 45.409760 ] } }
,
{ "type": "Feature", "properties": { "ID_Central": 106.000000, "CLLI_SEDE": "CHERITBC", "NOME_CENTR": "BALDISSERO PAVAROLO", "COMUNE": "PAVAROLO", "ISTAT_COMU": "001180", "INDIRIZZO": "VIA MAESTRI 38", "LATITUDINE": 45.068860, "LONGITUDIN": 7.836080, "POINT_X": 408375.251493, "POINT_Y": 4991258.820050, "TIPO_ADSL": "NO", "Desc_TIPO": "NO Adsl" }, "geometry": { "type": "Point", "coordinates": [ 7.836080, 45.068860 ] } }
,
{ "type": "Feature", "properties": { "ID_Central": 107.000000, "CLLI_SEDE": "CHERITAD", "NOME_CENTR": "BALDISSERO TORINESE", "COMUNE": "BALDISSERO TORINESE", "ISTAT_COMU": "001018", "INDIRIZZO": "PIAZZA UMBERTO I 7", "LATITUDINE": 45.068455, "LONGITUDIN": 7.817571, "POINT_X": 406917.550404, "POINT_Y": 4991234.953330, "TIPO_ADSL": "ADSL_1", "Desc_TIPO": "ADSL (8 mega)" }, "geometry": { "type": "Point", "coordinates": [ 7.817571, 45.068455 ] } }
,
{ "type": "Feature", "properties": { "ID_Central": 108.000000, "CLLI_SEDE": "BALMITAA", "NOME_CENTR": "BALME", "COMUNE": "BALME", "ISTAT_COMU": "001019", "INDIRIZZO": "ROMA 92", "LATITUDINE": 45.300446, "LONGITUDIN": 7.213454, "POINT_X": 359930.877899, "POINT_Y": 5017879.500220, "TIPO_ADSL": "ADSL_M", "Desc_TIPO": "ADSL Mini" }, "geometry": { "type": "Point", "coordinates": [ 7.213454, 45.300446 ] } }
,
{ "type": "Feature", "properties": { "ID_Central": 109.000000, "CLLI_SEDE": "", "NOME_CENTR": "BALMUCCIA", "COMUNE": "BALMUCCIA", "ISTAT_COMU": "002008", "INDIRIZZO": "", "LATITUDINE": 45.812175, "LONGITUDIN": 8.137243, "POINT_X": 432969.094443, "POINT_Y": 5073541.041890, "TIPO_ADSL": "ADSL_M", "Desc_TIPO": "ADSL Mini" }, "geometry": { "type": "Point", "coordinates": [ 8.137243, 45.812175 ] } }
,
{ "type": "Feature", "properties": { "ID_Central": 110.000000, "CLLI_SEDE": "BUROITAF", "NOME_CENTR": "BALOCCO", "COMUNE": "BALOCCO", "ISTAT_COMU": "002009", "INDIRIZZO": "ROMA 4", "LATITUDINE": 45.456135, "LONGITUDIN": 8.281026, "POINT_X": 443785.282686, "POINT_Y": 5033874.633080, "TIPO_ADSL": "ADSL_M", "Desc_TIPO": "ADSL Mini" }, "geometry": { "type": "Point", "coordinates": [ 8.281026, 45.456135 ] } }
,
{ "type": "Feature", "properties": { "ID_Central": 111.000000, "CLLI_SEDE": "CAMOITAG", "NOME_CENTR": "BALZOLA", "COMUNE": "BALZOLA", "ISTAT_COMU": "006011", "INDIRIZZO": "MAMELI 4", "LATITUDINE": 45.185371, "LONGITUDIN": 8.398977, "POINT_X": 452783.190081, "POINT_Y": 5003718.787020, "TIPO_ADSL": "ADSL_M", "Desc_TIPO": "ADSL Mini" }, "geometry": { "type": "Point", "coordinates": [ 8.398977, 45.185371 ] } }
,
{ "type": "Feature", "properties": { "ID_Central": 112.000000, "CLLI_SEDE": "IVREITAC", "NOME_CENTR": "BANCHETTE", "COMUNE": "BANCHETTE", "ISTAT_COMU": "001020", "INDIRIZZO": "STR.PR. IVREA-BANCHETTE", "LATITUDINE": 45.452089, "LONGITUDIN": 7.851333, "POINT_X": 410182.315293, "POINT_Y": 5033815.441560, "TIPO_ADSL": "ADSL_1", "Desc_TIPO": "ADSL (8 mega)" }, "geometry": { "type": "Point", "coordinates": [ 7.851333, 45.452089 ] } }
,
{ "type": "Feature", "properties": { "ID_Central": 113.000000, "CLLI_SEDE": "OVADITAE", "NOME_CENTR": "BANDITA DI CASSINELLE", "COMUNE": "CASSINELLE", "ISTAT_COMU": "006044", "INDIRIZZO": "COSTALUNGA", "LATITUDINE": 44.575203, "LONGITUDIN": 8.553251, "POINT_X": 464530.136960, "POINT_Y": 4935859.655070, "TIPO_ADSL": "NO", "Desc_TIPO": "NO Adsl" }, "geometry": { "type": "Point", "coordinates": [ 8.553251, 44.575203 ] } }
,
{ "type": "Feature", "properties": { "ID_Central": 114.000000, "CLLI_SEDE": "OVADITBA", "NOME_CENTR": "BANDITA S. LUCA", "COMUNE": "CASSINELLE", "ISTAT_COMU": "006044", "INDIRIZZO": "STRADA COMUNALE", "LATITUDINE": 44.604030, "LONGITUDIN": 8.562590, "POINT_X": 465288.773496, "POINT_Y": 4939057.724450, "TIPO_ADSL": "NO", "Desc_TIPO": "NO Adsl" }, "geometry": { "type": "Point", "coordinates": [ 8.562590, 44.604030 ] } }
,
{ "type": "Feature", "properties": { "ID_Central": 115.000000, "CLLI_SEDE": "BRAAITBB", "NOME_CENTR": "BANDITO 2", "COMUNE": "BRA", "ISTAT_COMU": "004029", "INDIRIZZO": "V.VISCONTI VENOSTA 41", "LATITUDINE": 44.717908, "LONGITUDIN": 7.825695, "POINT_X": 406993.710357, "POINT_Y": 4952284.999920, "TIPO_ADSL": "ADSL_1", "Desc_TIPO": "ADSL (8 mega)" }, "geometry": { "type": "Point", "coordinates": [ 7.825695, 44.717908 ] } }
,
{ "type": "Feature", "properties": { "ID_Central": 116.000000, "CLLI_SEDE": "PIEDITAH", "NOME_CENTR": "BANNIO ANZINO", "COMUNE": "BANNIO ANZINO", "ISTAT_COMU": "103007", "INDIRIZZO": "STATALE 10", "LATITUDINE": 45.979256, "LONGITUDIN": 8.145976, "POINT_X": 433846.317573, "POINT_Y": 5092097.239310, "TIPO_ADSL": "ADSL_M", "Desc_TIPO": "ADSL Mini" }, "geometry": { "type": "Point", "coordinates": [ 8.145976, 45.979256 ] } }
,
{ "type": "Feature", "properties": { "ID_Central": 117.000000, "CLLI_SEDE": "ALBAITBM", "NOME_CENTR": "BARACCONE 2 - CASTAGNITO", "COMUNE": "CASTAGNITO", "ISTAT_COMU": "004046", "INDIRIZZO": "VIA ALBA 15", "LATITUDINE": 44.745894, "LONGITUDIN": 8.060835, "POINT_X": 425652.953261, "POINT_Y": 4955152.041390, "TIPO_ADSL": "ADSL_2P", "Desc_TIPO": "ADSL 2+ (24 mega)" }, "geometry": { "type": "Point", "coordinates": [ 8.060835, 44.745894 ] } }
,
{ "type": "Feature", "properties": { "ID_Central": 118.000000, "CLLI_SEDE": "CIRIITAA", "NOME_CENTR": "BARBANIA", "COMUNE": "BARBANIA", "ISTAT_COMU": "001021", "INDIRIZZO": "V. CIRCONV. PER ROCCA", "LATITUDINE": 45.293064, "LONGITUDIN": 7.630210, "POINT_X": 392591.461452, "POINT_Y": 5016419.539940, "TIPO_ADSL": "ADSL_1", "Desc_TIPO": "ADSL (8 mega)" }, "geometry": { "type": "Point", "coordinates": [ 7.630210, 45.293064 ] } }
,
{ "type": "Feature", "properties": { "ID_Central": 119.000000, "CLLI_SEDE": "ALBAITAD", "NOME_CENTR": "BARBARESCO", "COMUNE": "BARBARESCO", "ISTAT_COMU": "004011", "INDIRIZZO": "TORINO 46", "LATITUDINE": 44.725613, "LONGITUDIN": 8.081007, "POINT_X": 427224.394064, "POINT_Y": 4952880.950750, "TIPO_ADSL": "NO", "Desc_TIPO": "NO Adsl" }, "geometry": { "type": "Point", "coordinates": [ 8.081007, 44.725613 ] } }
,
{ "type": "Feature", "properties": { "ID_Central": 120.000000, "CLLI_SEDE": "GATOITAF", "NOME_CENTR": "BARDASSANO", "COMUNE": "GASSINO TORINESE", "ISTAT_COMU": "001112", "INDIRIZZO": "CENTRO 24", "LATITUDINE": 45.101189, "LONGITUDIN": 7.843383, "POINT_X": 409001.496982, "POINT_Y": 4994841.971700, "TIPO_ADSL": "NO", "Desc_TIPO": "NO Adsl" }, "geometry": { "type": "Point", "coordinates": [ 7.843383, 45.101189 ] } }
,
{ "type": "Feature", "properties": { "ID_Central": 121.000000, "CLLI_SEDE": "GATOITAH", "NOME_CENTR": "BARDASSANO 2", "COMUNE": "GASSINO TORINESE", "ISTAT_COMU": "001112", "INDIRIZZO": "VIA VIRGILIO", "LATITUDINE": 45.102100, "LONGITUDIN": 7.841430, "POINT_X": 408849.291730, "POINT_Y": 4994945.373350, "TIPO_ADSL": "NO", "Desc_TIPO": "NO Adsl" }, "geometry": { "type": "Point", "coordinates": [ 7.841430, 45.102100 ] } }
,
{ "type": "Feature", "properties": { "ID_Central": 122.000000, "CLLI_SEDE": "BRDOITAA", "NOME_CENTR": "BARDONECCHIA", "COMUNE": "BARDONECCHIA", "ISTAT_COMU": "001022", "INDIRIZZO": "P.ZA DE GASPERI", "LATITUDINE": 45.078272, "LONGITUDIN": 6.703992, "POINT_X": 319286.093750, "POINT_Y": 4994210.000000, "TIPO_ADSL": "ADSL_1", "Desc_TIPO": "ADSL (8 mega)" }, "geometry": { "type": "Point", "coordinates": [ 6.703992, 45.078272 ] } }
,
{ "type": "Feature", "properties": { "ID_Central": 123.000000, "CLLI_SEDE": "OLEGITAA", "NOME_CENTR": "BARENGO", "COMUNE": "BARENGO", "ISTAT_COMU": "003012", "INDIRIZZO": "S.MARIA", "LATITUDINE": 45.575443, "LONGITUDIN": 8.514808, "POINT_X": 462144.166650, "POINT_Y": 5046992.530880, "TIPO_ADSL": "ADSL_M", "Desc_TIPO": "ADSL Mini" }, "geometry": { "type": "Point", "coordinates": [ 8.514808, 45.575443 ] } }
,
{ "type": "Feature", "properties": { "ID_Central": 124.000000, "CLLI_SEDE": "BRGEITAE", "NOME_CENTR": "BARGE B", "COMUNE": "BARGE", "ISTAT_COMU": "004012", "INDIRIZZO": "SAN MARTINO 4", "LATITUDINE": 44.725445, "LONGITUDIN": 7.323733, "POINT_X": 367254.880871, "POINT_Y": 4953818.232460, "TIPO_ADSL": "ADSL_1", "Desc_TIPO": "ADSL (8 mega)" }, "geometry": { "type": "Point", "coordinates": [ 7.323733, 44.725445 ] } }
,
{ "type": "Feature", "properties": { "ID_Central": 125.000000, "CLLI_SEDE": "ALBAITAU", "NOME_CENTR": "BAROLO", "COMUNE": "BAROLO", "ISTAT_COMU": "004013", "INDIRIZZO": "ASILO 4", "LATITUDINE": 44.609732, "LONGITUDIN": 7.942376, "POINT_X": 416079.039549, "POINT_Y": 4940142.028740, "TIPO_ADSL": "ADSL_M", "Desc_TIPO": "ADSL Mini" }, "geometry": { "type": "Point", "coordinates": [ 7.942376, 44.609732 ] } }
,
{ "type": "Feature", "properties": { "ID_Central": 126.000000, "CLLI_SEDE": "NOLIITAN", "NOME_CENTR": "BASALUZZO 2", "COMUNE": "BASALUZZO", "ISTAT_COMU": "006012", "INDIRIZZO": "STRADA VECCHIA PER NOVI", "LATITUDINE": 44.770244, "LONGITUDIN": 8.738875, "POINT_X": 479337.250717, "POINT_Y": 4957461.041940, "TIPO_ADSL": "ADSL_1", "Desc_TIPO": "ADSL (8 mega)" }, "geometry": { "type": "Point", "coordinates": [ 8.738875, 44.770244 ] } }
,
{ "type": "Feature", "properties": { "ID_Central": 127.000000, "CLLI_SEDE": "VLENITAF", "NOME_CENTR": "BASSIGNANA 2", "COMUNE": "BASSIGNANA", "ISTAT_COMU": "006013", "INDIRIZZO": "STRA. COMUNALE CIMITERO 3", "LATITUDINE": 45.008396, "LONGITUDIN": 8.703340, "POINT_X": 476622.069035, "POINT_Y": 4983925.892130, "TIPO_ADSL": "ADSL_1", "Desc_TIPO": "ADSL (8 mega)" }, "geometry": { "type": "Point", "coordinates": [ 8.703340, 45.008396 ] } }
,
{ "type": "Feature", "properties": { "ID_Central": 128.000000, "CLLI_SEDE": "MONDITAB", "NOME_CENTR": "BASTIA MONDOVI", "COMUNE": "BASTIA MONDOVI'", "ISTAT_COMU": "004014", "INDIRIZZO": "DELLE SCUOLE", "LATITUDINE": 44.442335, "LONGITUDIN": 7.895873, "POINT_X": 412137.795085, "POINT_Y": 4921596.779950, "TIPO_ADSL": "ADSL_M", "Desc_TIPO": "ADSL Mini" }, "geometry": { "type": "Point", "coordinates": [ 7.895873, 44.442335 ] } }
,
{ "type": "Feature", "properties": { "ID_Central": 129.000000, "CLLI_SEDE": "COSSITAJ", "NOME_CENTR": "BATTIANA", "COMUNE": "COSSATO", "ISTAT_COMU": "096020", "INDIRIZZO": "FRAZIONE BATTIANA", "LATITUDINE": 45.568550, "LONGITUDIN": 8.185070, "POINT_X": 436409.470637, "POINT_Y": 5046435.199790, "TIPO_ADSL": "NO", "Desc_TIPO": "NO Adsl" }, "geometry": { "type": "Point", "coordinates": [ 8.185070, 45.568550 ] } }
,
{ "type": "Feature", "properties": { "ID_Central": 130.000000, "CLLI_SEDE": "CEVAITAX", "NOME_CENTR": "BATTIFOLLO", "COMUNE": "BATTIFOLLO", "ISTAT_COMU": "004015", "INDIRIZZO": "C\/O CHIESA", "LATITUDINE": 44.321295, "LONGITUDIN": 8.006207, "POINT_X": 420754.655994, "POINT_Y": 4908039.572030, "TIPO_ADSL": "NO", "Desc_TIPO": "NO Adsl" }, "geometry": { "type": "Point", "coordinates": [ 8.006207, 44.321295 ] } }
,
{ "type": "Feature", "properties": { "ID_Central": 131.000000, "CLLI_SEDE": "BAVEITAD", "NOME_CENTR": "BAVENO", "COMUNE": "BAVENO", "ISTAT_COMU": "103008", "INDIRIZZO": "VIA PRIVATA ALLE VILLE 5", "LATITUDINE": 45.908804, "LONGITUDIN": 8.505185, "POINT_X": 461622.447378, "POINT_Y": 5084034.060120, "TIPO_ADSL": "ADSL_2P", "Desc_TIPO": "ADSL 2+ (24 mega)" }, "geometry": { "type": "Point", "coordinates": [ 8.505185, 45.908804 ] } }
,
{ "type": "Feature", "properties": { "ID_Central": 132.000000, "CLLI_SEDE": "BAVEITAP", "NOME_CENTR": "BAVENO LIBERTA'", "COMUNE": "BAVENO", "ISTAT_COMU": "103008", "INDIRIZZO": "VIA LIBERTA' 29 ARM.5D", "LATITUDINE": 45.910030, "LONGITUDIN": 8.503190, "POINT_X": 461468.563998, "POINT_Y": 5084171.273870, "TIPO_ADSL": "NO", "Desc_TIPO": "NO Adsl" }, "geometry": { "type": "Point", "coordinates": [ 8.503190, 45.910030 ] } }
,
{ "type": "Feature", "properties": { "ID_Central": 133.000000, "CLLI_SEDE": "OULXITAK", "NOME_CENTR": "BEAULARD", "COMUNE": "OULX", "ISTAT_COMU": "001175", "INDIRIZZO": "DELLE SCUOLE 13", "LATITUDINE": 45.044186, "LONGITUDIN": 6.753406, "POINT_X": 323070.178572, "POINT_Y": 4990314.223840, "TIPO_ADSL": "ADSL_M", "Desc_TIPO": "ADSL Mini" }, "geometry": { "type": "Point", "coordinates": [ 6.753406, 45.044186 ] } }
,
{ "type": "Feature", "properties": { "ID_Central": 134.000000, "CLLI_SEDE": "VERBITAF", "NOME_CENTR": "BEE", "COMUNE": "BEE", "ISTAT_COMU": "103009", "INDIRIZZO": "PROVINCIALE 5", "LATITUDINE": 45.963905, "LONGITUDIN": 8.584321, "POINT_X": 467792.099303, "POINT_Y": 5090121.095590, "TIPO_ADSL": "ADSL_M", "Desc_TIPO": "ADSL Mini" }, "geometry": { "type": "Point", "coordinates": [ 8.584321, 45.963905 ] } }
,
{ "type": "Feature", "properties": { "ID_Central": 135.000000, "CLLI_SEDE": "CUNEITBC", "NOME_CENTR": "BEINETTE", "COMUNE": "BEINETTE", "ISTAT_COMU": "004016", "INDIRIZZO": "PIAZZA DIVISIONE CUNEENSE", "LATITUDINE": 44.361570, "LONGITUDIN": 7.646986, "POINT_X": 392184.000000, "POINT_Y": 4912923.000000, "TIPO_ADSL": "ADSL_1", "Desc_TIPO": "ADSL (8 mega)" }, "geometry": { "type": "Point", "coordinates": [ 7.646986, 44.361570 ] } }
,
{ "type": "Feature", "properties": { "ID_Central": 136.000000, "CLLI_SEDE": "ASTIITBM", "NOME_CENTR": "BELANGERO", "COMUNE": "ASTI", "ISTAT_COMU": "005005", "INDIRIZZO": "LOC. PIANA 322", "LATITUDINE": 44.846080, "LONGITUDIN": 8.192800, "POINT_X": 436210.174528, "POINT_Y": 4966168.961510, "TIPO_ADSL": "NO", "Desc_TIPO": "NO Adsl" }, "geometry": { "type": "Point", "coordinates": [ 8.192800, 44.846080 ] } }
,
{ "type": "Feature", "properties": { "ID_Central": 137.000000, "CLLI_SEDE": "OLEGITAV", "NOME_CENTR": "BELLINZAGO CAVAGLIANO", "COMUNE": "BELLINZAGO NOVARESE", "ISTAT_COMU": "003016", "INDIRIZZO": "LOC.CAVAGLIANO", "LATITUDINE": 45.534060, "LONGITUDIN": 8.629730, "POINT_X": 471089.439716, "POINT_Y": 5042347.151420, "TIPO_ADSL": "NO", "Desc_TIPO": "NO Adsl" }, "geometry": { "type": "Point", "coordinates": [ 8.629730, 45.534060 ] } }
,
{ "type": "Feature", "properties": { "ID_Central": 138.000000, "CLLI_SEDE": "OLEGITAG", "NOME_CENTR": "BELLINZAGO NOVARESE", "COMUNE": "BELLINZAGO NOVARESE", "ISTAT_COMU": "003016", "INDIRIZZO": "FOSCOLO 6", "LATITUDINE": 45.566273, "LONGITUDIN": 8.640842, "POINT_X": 471973.089096, "POINT_Y": 5045922.040790, "TIPO_ADSL": "ADSL_2P", "Desc_TIPO": "ADSL 2+ (24 mega)" }, "geometry": { "type": "Point", "coordinates": [ 8.640842, 45.566273 ] } }
,
{ "type": "Feature", "properties": { "ID_Central": 139.000000, "CLLI_SEDE": "DOGLITAD", "NOME_CENTR": "BELVEDERE LANGHE", "COMUNE": "BELVEDERE LANGHE", "ISTAT_COMU": "004018", "INDIRIZZO": "P.ZA A. MORO", "LATITUDINE": 44.494557, "LONGITUDIN": 7.974005, "POINT_X": 418428.060158, "POINT_Y": 4927316.419900, "TIPO_ADSL": "ADSL_M", "Desc_TIPO": "ADSL Mini" }, "geometry": { "type": "Point", "coordinates": [ 7.974005, 44.494557 ] } }
,
{ "type": "Feature", "properties": { "ID_Central": 140.000000, "CLLI_SEDE": "FOSSITAL", "NOME_CENTR": "BENEVAGIENNA", "COMUNE": "BENE VAGIENNA", "ISTAT_COMU": "004019", "INDIRIZZO": "VIA MONDOVI'", "LATITUDINE": 44.542322, "LONGITUDIN": 7.824708, "POINT_X": 406634.429656, "POINT_Y": 4932781.957810, "TIPO_ADSL": "ADSL_1", "Desc_TIPO": "ADSL (8 mega)" }, "geometry": { "type": "Point", "coordinates": [ 7.824708, 44.542322 ] } }
,
{ "type": "Feature", "properties": { "ID_Central": 141.000000, "CLLI_SEDE": "ALBAITAY", "NOME_CENTR": "BENEVELLO", "COMUNE": "BENEVELLO", "ISTAT_COMU": "004020", "INDIRIZZO": "DEL RIALE MANERA", "LATITUDINE": 44.628300, "LONGITUDIN": 8.107821, "POINT_X": 429229.454495, "POINT_Y": 4942047.687320, "TIPO_ADSL": "ADSL_M", "Desc_TIPO": "ADSL Mini" }, "geometry": { "type": "Point", "coordinates": [ 8.107821, 44.628300 ] } }
,
{ "type": "Feature", "properties": { "ID_Central": 142.000000, "CLLI_SEDE": "FELIITAA", "NOME_CENTR": "BERGAMASCO CONTAINER", "COMUNE": "BERGAMASCO", "ISTAT_COMU": "006015", "INDIRIZZO": "CESARE BATTISTI", "LATITUDINE": 44.828609, "LONGITUDIN": 8.454828, "POINT_X": 456904.196180, "POINT_Y": 4964055.865070, "TIPO_ADSL": "ADSL_M", "Desc_TIPO": "ADSL Mini" }, "geometry": { "type": "Point", "coordinates": [ 8.454828, 44.828609 ] } }
,
{ "type": "Feature", "properties": { "ID_Central": 143.000000, "CLLI_SEDE": "CUNEITCN", "NOME_CENTR": "BERNEZZO 3", "COMUNE": "BERNEZZO", "ISTAT_COMU": "004022", "INDIRIZZO": "VIA REGINA MARGHERITA", "LATITUDINE": 44.385632, "LONGITUDIN": 7.434462, "POINT_X": 375299.847563, "POINT_Y": 4915897.409460, "TIPO_ADSL": "ADSL_M", "Desc_TIPO": "ADSL Mini" }, "geometry": { "type": "Point", "coordinates": [ 7.434462, 44.385632 ] } }
,
{ "type": "Feature", "properties": { "ID_Central": 144.000000, "CLLI_SEDE": "PTRAITAA", "NOME_CENTR": "BERSEZIO", "COMUNE": "ARGENTERA", "ISTAT_COMU": "004006", "INDIRIZZO": "NAZIONALE 1 FRAZ.BERSEZIO", "LATITUDINE": 44.382347, "LONGITUDIN": 6.965588, "POINT_X": 337943.136585, "POINT_Y": 4916353.499040, "TIPO_ADSL": "NO", "Desc_TIPO": "NO Adsl" }, "geometry": { "type": "Point", "coordinates": [ 6.965588, 44.382347 ] } }
,
{ "type": "Feature", "properties": { "ID_Central": 145.000000, "CLLI_SEDE": "CDBOITAH", "NOME_CENTR": "BERZANO DI S.PIETRO", "COMUNE": "BERZANO DI SAN PIETRO", "ISTAT_COMU": "005009", "INDIRIZZO": "VIA COMUNALE 1", "LATITUDINE": 45.094420, "LONGITUDIN": 7.952830, "POINT_X": 417602.659207, "POINT_Y": 4993972.689440, "TIPO_ADSL": "NO", "Desc_TIPO": "NO Adsl" }, "geometry": { "type": "Point", "coordinates": [ 7.952830, 45.094420 ] } }
,
{ "type": "Feature", "properties": { "ID_Central": 146.000000, "CLLI_SEDE": "CHIVITAG", "NOME_CENTR": "BETLEMME", "COMUNE": "CHIVASSO", "ISTAT_COMU": "001082", "INDIRIZZO": "CHIABOTTO 19", "LATITUDINE": 45.211991, "LONGITUDIN": 7.911590, "POINT_X": 414533.590869, "POINT_Y": 5007076.518150, "TIPO_ADSL": "ADSL_1", "Desc_TIPO": "ADSL (8 mega)" }, "geometry": { "type": "Point", "coordinates": [ 7.911590, 45.211991 ] } }
,
{ "type": "Feature", "properties": { "ID_Central": 147.000000, "CLLI_SEDE": "CHIVITBE", "NOME_CENTR": "BETLEMME-BOSCHETTO", "COMUNE": "CHIVASSO", "ISTAT_COMU": "001082", "INDIRIZZO": "VIA CENE-FRAZ. BOSCHETTO", "LATITUDINE": 45.234860, "LONGITUDIN": 7.905370, "POINT_X": 414079.629982, "POINT_Y": 5009623.675610, "TIPO_ADSL": "NO", "Desc_TIPO": "NO Adsl" }, "geometry": { "type": "Point", "coordinates": [ 7.905370, 45.234860 ] } }
,
{ "type": "Feature", "properties": { "ID_Central": 148.000000, "CLLI_SEDE": "NOLIITAT", "NOME_CENTR": "BETTOLE", "COMUNE": "POZZOLO FORMIGARO", "ISTAT_COMU": "006138", "INDIRIZZO": "FRAZIONE BETTOLE", "LATITUDINE": 44.794420, "LONGITUDIN": 8.783950, "POINT_X": 482911.173084, "POINT_Y": 4960136.181460, "TIPO_ADSL": "NO", "Desc_TIPO": "NO Adsl" }, "geometry": { "type": "Point", "coordinates": [ 8.783950, 44.794420 ] } }
,
{ "type": "Feature", "properties": { "ID_Central": 149.000000, "CLLI_SEDE": "TRTOITBP", "NOME_CENTR": "BETTOLE DI RIVALTA", "COMUNE": "TORTONA", "ISTAT_COMU": "006174", "INDIRIZZO": "STR. COM. PER RIVALTA 16", "LATITUDINE": 44.900800, "LONGITUDIN": 8.871720, "POINT_X": 489872.142937, "POINT_Y": 4971938.636920, "TIPO_ADSL": "NO", "Desc_TIPO": "NO Adsl" }, "geometry": { "type": "Point", "coordinates": [ 8.871720, 44.900800 ] } }
,
{ "type": "Feature", "properties": { "ID_Central": 150.000000, "CLLI_SEDE": "CASMITAH", "NOME_CENTR": "BETTOLINO 2", "COMUNE": "BALDISSERO CANAVESE", "ISTAT_COMU": "001017", "INDIRIZZO": "VIA BETTOLINO->V. NOTE", "LATITUDINE": 45.382960, "LONGITUDIN": 7.712990, "POINT_X": 399242.014376, "POINT_Y": 5026299.424090, "TIPO_ADSL": "NO", "Desc_TIPO": "NO Adsl" }, "geometry": { "type": "Point", "coordinates": [ 7.712990, 45.382960 ] } }
,
{ "type": "Feature", "properties": { "ID_Central": 151.000000, "CLLI_SEDE": "DOMOITAE", "NOME_CENTR": "BEURA", "COMUNE": "BEURA-CARDEZZA", "ISTAT_COMU": "103011", "INDIRIZZO": "PIAZZA MATTEOTTI 4", "LATITUDINE": 46.078833, "LONGITUDIN": 8.299453, "POINT_X": 445832.147940, "POINT_Y": 5103044.967240, "TIPO_ADSL": "ADSL_1", "Desc_TIPO": "ADSL (8 mega)" }, "geometry": { "type": "Point", "coordinates": [ 8.299453, 46.078833 ] } }
,
{ "type": "Feature", "properties": { "ID_Central": 152.000000, "CLLI_SEDE": "BIELITBN", "NOME_CENTR": "BI-FAVARO", "COMUNE": "BIELLA", "ISTAT_COMU": "096004", "INDIRIZZO": "ST.COMUNALE DEL CIMITERO", "LATITUDINE": 45.597923, "LONGITUDIN": 8.025292, "POINT_X": 423981.367501, "POINT_Y": 5049837.549250, "TIPO_ADSL": "ADSL_M", "Desc_TIPO": "ADSL Mini" }, "geometry": { "type": "Point", "coordinates": [ 8.025292, 45.597923 ] } }
,
{ "type": "Feature", "properties": { "ID_Central": 153.000000, "CLLI_SEDE": "BIELITBP", "NOME_CENTR": "BI-S. EUROSIA", "COMUNE": "PRALUNGO", "ISTAT_COMU": "096049", "INDIRIZZO": "ROBELLO 61-FR.S.EUROSIA", "LATITUDINE": 45.612720, "LONGITUDIN": 8.026601, "POINT_X": 424103.415843, "POINT_Y": 5051480.238620, "TIPO_ADSL": "ADSL_M", "Desc_TIPO": "ADSL Mini" }, "geometry": { "type": "Point", "coordinates": [ 8.026601, 45.612720 ] } }
,
{ "type": "Feature", "properties": { "ID_Central": 154.000000, "CLLI_SEDE": "BANDITAL", "NOME_CENTR": "BIANDRATE CR", "COMUNE": "BIANDRATE", "ISTAT_COMU": "003018", "INDIRIZZO": "VIA MATTEOTTI 70", "LATITUDINE": 45.449368, "LONGITUDIN": 8.464319, "POINT_X": 458111.471885, "POINT_Y": 5033011.008360, "TIPO_ADSL": "ADSL_1", "Desc_TIPO": "ADSL (8 mega)" }, "geometry": { "type": "Point", "coordinates": [ 8.464319, 45.449368 ] } }
,
{ "type": "Feature", "properties": { "ID_Central": 155.000000, "CLLI_SEDE": "CIGLITAG", "NOME_CENTR": "BIANZE'", "COMUNE": "BIANZE'", "ISTAT_COMU": "002011", "INDIRIZZO": "M. D'AZEGLIO 42", "LATITUDINE": 45.306495, "LONGITUDIN": 8.119558, "POINT_X": 430978.682081, "POINT_Y": 5017376.030040, "TIPO_ADSL": "ADSL_1", "Desc_TIPO": "ADSL (8 mega)" }, "geometry": { "type": "Point", "coordinates": [ 8.119558, 45.306495 ] } }
,
{ "type": "Feature", "properties": { "ID_Central": 156.000000, "CLLI_SEDE": "PINEITAB", "NOME_CENTR": "BIBIANA", "COMUNE": "BIBIANA", "ISTAT_COMU": "001025", "INDIRIZZO": "VIA PINEROLO->43", "LATITUDINE": 44.801881, "LONGITUDIN": 7.288726, "POINT_X": 364661.253815, "POINT_Y": 4962366.697130, "TIPO_ADSL": "ADSL_1", "Desc_TIPO": "ADSL (8 mega)" }, "geometry": { "type": "Point", "coordinates": [ 7.288726, 44.801881 ] } }
,
{ "type": "Feature", "properties": { "ID_Central": 157.000000, "CLLI_SEDE": "BIELITAH", "NOME_CENTR": "BIELLA", "COMUNE": "BIELLA", "ISTAT_COMU": "096004", "INDIRIZZO": "COSTANTINO CROSA 14", "LATITUDINE": 45.566733, "LONGITUDIN": 8.056151, "POINT_X": 426347.287967, "POINT_Y": 5046343.610160, "TIPO_ADSL": "ADSL_2P", "Desc_TIPO": "ADSL 2+ (24 mega)" }, "geometry": { "type": "Point", "coordinates": [ 8.056151, 45.566733 ] } }
,
{ "type": "Feature", "properties": { "ID_Central": 158.000000, "CLLI_SEDE": "BIELITAJ", "NOME_CENTR": "BIELLA LAMARMORA", "COMUNE": "BIELLA", "ISTAT_COMU": "096004", "INDIRIZZO": "VIA ROSSELLI 74 BIS", "LATITUDINE": 45.554365, "LONGITUDIN": 8.049448, "POINT_X": 425808.007017, "POINT_Y": 5044975.764200, "TIPO_ADSL": "ADSL_2P", "Desc_TIPO": "ADSL 2+ (24 mega)" }, "geometry": { "type": "Point", "coordinates": [ 8.049448, 45.554365 ] } }
,
{ "type": "Feature", "properties": { "ID_Central": 159.000000, "CLLI_SEDE": "BIELITCL", "NOME_CENTR": "BIELLA SCHIAPPARELLI", "COMUNE": "BIELLA", "ISTAT_COMU": "096004", "INDIRIZZO": "VIA SCHIAPPARELLI 15", "LATITUDINE": 45.559490, "LONGITUDIN": 8.056030, "POINT_X": 426328.408802, "POINT_Y": 5045539.026320, "TIPO_ADSL": "NO", "Desc_TIPO": "NO Adsl" }, "geometry": { "type": "Point", "coordinates": [ 8.056030, 45.559490 ] } }
,
{ "type": "Feature", "properties": { "ID_Central": 160.000000, "CLLI_SEDE": "VAMOITBA", "NOME_CENTR": "BIELMONTE 2", "COMUNE": "PIATTO", "ISTAT_COMU": "096043", "INDIRIZZO": "ZNA CHALET BIELMONTE", "LATITUDINE": 45.661186, "LONGITUDIN": 8.087042, "POINT_X": 428877.377942, "POINT_Y": 5056809.342010, "TIPO_ADSL": "NO", "Desc_TIPO": "NO Adsl" }, "geometry": { "type": "Point", "coordinates": [ 8.087042, 45.661186 ] } }
,
{ "type": "Feature", "properties": { "ID_Central": 161.000000, "CLLI_SEDE": "BIELITAB", "NOME_CENTR": "BIOGLIO", "COMUNE": "BIOGLIO", "ISTAT_COMU": "096005", "INDIRIZZO": "PIAZZA VITTORIO VENETO  4", "LATITUDINE": 45.607468, "LONGITUDIN": 8.129438, "POINT_X": 432115.338057, "POINT_Y": 5050804.532710, "TIPO_ADSL": "ADSL_M", "Desc_TIPO": "ADSL Mini" }, "geometry": { "type": "Point", "coordinates": [ 8.129438, 45.607468 ] } }
,
{ "type": "Feature", "properties": { "ID_Central": 162.000000, "CLLI_SEDE": "ACTEITAN", "NOME_CENTR": "BISTAGNO", "COMUNE": "BISTAGNO", "ISTAT_COMU": "006017", "INDIRIZZO": "SARACCO 9", "LATITUDINE": 44.661823, "LONGITUDIN": 8.368236, "POINT_X": 449915.289827, "POINT_Y": 4945578.437880, "TIPO_ADSL": "ADSL_M", "Desc_TIPO": "ADSL Mini" }, "geometry": { "type": "Point", "coordinates": [ 8.368236, 44.661823 ] } }
,
{ "type": "Feature", "properties": { "ID_Central": 163.000000, "CLLI_SEDE": "TOPEITAB", "NOME_CENTR": "BOBBIO PELLICE", "COMUNE": "BOBBIO PELLICE", "ISTAT_COMU": "001026", "INDIRIZZO": "VIA MAESTRA->49", "LATITUDINE": 44.807953, "LONGITUDIN": 7.114020, "POINT_X": 350859.987023, "POINT_Y": 4963346.917000, "TIPO_ADSL": "ADSL_M", "Desc_TIPO": "ADSL Mini" }, "geometry": { "type": "Point", "coordinates": [ 7.114020, 44.807953 ] } }
,
{ "type": "Feature", "properties": { "ID_Central": 164.000000, "CLLI_SEDE": "BRGOITAR", "NOME_CENTR": "BOCA", "COMUNE": "BOCA", "ISTAT_COMU": "003019", "INDIRIZZO": "PIAZZA MATTEOTTI", "LATITUDINE": 45.679010, "LONGITUDIN": 8.409650, "POINT_X": 454024.241171, "POINT_Y": 5058553.767070, "TIPO_ADSL": "NO", "Desc_TIPO": "NO Adsl" }, "geometry": { "type": "Point", "coordinates": [ 8.409650, 45.679010 ] } }
,
{ "type": "Feature", "properties": { "ID_Central": 165.000000, "CLLI_SEDE": "BRGOITBJ", "NOME_CENTR": "BOCA RONCHETTO", "COMUNE": "BOCA", "ISTAT_COMU": "003019", "INDIRIZZO": "V.PARTIGIANI FR.RONCHETTO", "LATITUDINE": 45.679010, "LONGITUDIN": 8.409650, "POINT_X": 454024.241171, "POINT_Y": 5058553.767070, "TIPO_ADSL": "NO", "Desc_TIPO": "NO Adsl" }, "geometry": { "type": "Point", "coordinates": [ 8.409650, 45.679010 ] } }
,
{ "type": "Feature", "properties": { "ID_Central": 166.000000, "CLLI_SEDE": "SCOPITAA", "NOME_CENTR": "BOCCIOLETO", "COMUNE": "BOCCIOLETO", "ISTAT_COMU": "002014", "INDIRIZZO": "CORTALIVO 6", "LATITUDINE": 45.830433, "LONGITUDIN": 8.112797, "POINT_X": 431092.344043, "POINT_Y": 5075590.403900, "TIPO_ADSL": "ADSL_M", "Desc_TIPO": "ADSL Mini" }, "geometry": { "type": "Point", "coordinates": [ 8.112797, 45.830433 ] } }
,
{ "type": "Feature", "properties": { "ID_Central": 167.000000, "CLLI_SEDE": "MOATITAF", "NOME_CENTR": "BOGLIETTO", "COMUNE": "COSTIGLIOLE D'ASTI", "ISTAT_COMU": "005050", "INDIRIZZO": "CANELLI 71", "LATITUDINE": 44.799297, "LONGITUDIN": 8.416098, "POINT_X": 453819.203639, "POINT_Y": 4960821.045980, "TIPO_ADSL": "ADSL_M", "Desc_TIPO": "ADSL Mini" }, "geometry": { "type": "Point", "coordinates": [ 8.416098, 44.799297 ] } }
,
{ "type": "Feature", "properties": { "ID_Central": 168.000000, "CLLI_SEDE": "DOMOITAM", "NOME_CENTR": "BOGNANCO", "COMUNE": "BOGNANCO", "ISTAT_COMU": "103012", "INDIRIZZO": "PALAZZO TERME", "LATITUDINE": 46.120602, "LONGITUDIN": 8.206670, "POINT_X": 438704.296020, "POINT_Y": 5107753.229810, "TIPO_ADSL": "NO", "Desc_TIPO": "NO Adsl" }, "geometry": { "type": "Point", "coordinates": [ 8.206670, 46.120602 ] } }
,
{ "type": "Feature", "properties": { "ID_Central": 169.000000, "CLLI_SEDE": "BRGOITAB", "NOME_CENTR": "BOGOGNO", "COMUNE": "BOGOGNO", "ISTAT_COMU": "003021", "INDIRIZZO": "DON BOSCO 2", "LATITUDINE": 45.665057, "LONGITUDIN": 8.533417, "POINT_X": 463654.000000, "POINT_Y": 5056940.000000, "TIPO_ADSL": "ADSL_1", "Desc_TIPO": "ADSL (8 mega)" }, "geometry": { "type": "Point", "coordinates": [ 8.533417, 45.665057 ] } }
,
{ "type": "Feature", "properties": { "ID_Central": 170.000000, "CLLI_SEDE": "IVREITAH", "NOME_CENTR": "BOLLENGO", "COMUNE": "BOLLENGO", "ISTAT_COMU": "001027", "INDIRIZZO": "ROMA 4", "LATITUDINE": 45.470787, "LONGITUDIN": 7.940073, "POINT_X": 417148.575784, "POINT_Y": 5035797.380290, "TIPO_ADSL": "ADSL_2P", "Desc_TIPO": "ADSL 2+ (24 mega)" }, "geometry": { "type": "Point", "coordinates": [ 7.940073, 45.470787 ] } }
,
{ "type": "Feature", "properties": { "ID_Central": 171.000000, "CLLI_SEDE": "IVREITCP", "NOME_CENTR": "BOLLENGO 2", "COMUNE": "BOLLENGO", "ISTAT_COMU": "001027", "INDIRIZZO": "VIA S. MARTA", "LATITUDINE": 45.474940, "LONGITUDIN": 7.943030, "POINT_X": 417385.761502, "POINT_Y": 5036255.723980, "TIPO_ADSL": "NO", "Desc_TIPO": "NO Adsl" }, "geometry": { "type": "Point", "coordinates": [ 7.943030, 45.474940 ] } }
,
{ "type": "Feature", "properties": { "ID_Central": 172.000000, "CLLI_SEDE": "GOZZITAB", "NOME_CENTR": "BOLZANO NOVARESE", "COMUNE": "BOLZANO NOVARESE", "ISTAT_COMU": "003022", "INDIRIZZO": "PER GOZZANO", "LATITUDINE": 45.758851, "LONGITUDIN": 8.438704, "POINT_X": 456349.168213, "POINT_Y": 5067407.968290, "TIPO_ADSL": "ADSL_M", "Desc_TIPO": "ADSL Mini" }, "geometry": { "type": "Point", "coordinates": [ 8.438704, 45.758851 ] } }
,
{ "type": "Feature", "properties": { "ID_Central": 173.000000, "CLLI_SEDE": "ALBAITAC", "NOME_CENTR": "BORBORE - VEZZA D'ALBA", "COMUNE": "VEZZA D'ALBA", "ISTAT_COMU": "004241", "INDIRIZZO": "CASTELLERO 3", "LATITUDINE": 44.763042, "LONGITUDIN": 8.009490, "POINT_X": 421611.516415, "POINT_Y": 4957105.076020, "TIPO_ADSL": "ADSL_2P", "Desc_TIPO": "ADSL 2+ (24 mega)" }, "geometry": { "type": "Point", "coordinates": [ 8.009490, 44.763042 ] } }
,
{ "type": "Feature", "properties": { "ID_Central": 174.000000, "CLLI_SEDE": "SESCITAA", "NOME_CENTR": "BORGHETTO DI BORBERA", "COMUNE": "BORGHETTO DI BORBERA", "ISTAT_COMU": "006018", "INDIRIZZO": "ROMA", "LATITUDINE": 44.728523, "LONGITUDIN": 8.942388, "POINT_X": 495437.902152, "POINT_Y": 4952795.080670, "TIPO_ADSL": "NO", "Desc_TIPO": "NO Adsl" }, "geometry": { "type": "Point", "coordinates": [ 8.942388, 44.728523 ] } }
,
{ "type": "Feature", "properties": { "ID_Central": 175.000000, "CLLI_SEDE": "CIGLITAC", "NOME_CENTR": "BORGO D'ALE", "COMUNE": "BORGO D'ALE", "ISTAT_COMU": "002015", "INDIRIZZO": "MARCONI 7", "LATITUDINE": 45.351000, "LONGITUDIN": 8.052348, "POINT_X": 425768.000000, "POINT_Y": 5022380.000000, "TIPO_ADSL": "ADSL_1", "Desc_TIPO": "ADSL (8 mega)" }, "geometry": { "type": "Point", "coordinates": [ 8.052348, 45.351000 ] } }
,
{ "type": "Feature", "properties": { "ID_Central": 176.000000, "CLLI_SEDE": "CHIVITAK", "NOME_CENTR": "BORGO REVEL", "COMUNE": "VEROLENGO", "ISTAT_COMU": "001293", "INDIRIZZO": "ASILO", "LATITUDINE": 45.193359, "LONGITUDIN": 8.018475, "POINT_X": 422901.469790, "POINT_Y": 5004899.055920, "TIPO_ADSL": "NO", "Desc_TIPO": "NO Adsl" }, "geometry": { "type": "Point", "coordinates": [ 8.018475, 45.193359 ] } }
,
{ "type": "Feature", "properties": { "ID_Central": 177.000000, "CLLI_SEDE": "CUNEITAY", "NOME_CENTR": "BORGO S. DALMAZZO B", "COMUNE": "BORGO SAN DALMAZZO", "ISTAT_COMU": "004025", "INDIRIZZO": "CAVOUR 19", "LATITUDINE": 44.331220, "LONGITUDIN": 7.484347, "POINT_X": 379161.537904, "POINT_Y": 4909778.793250, "TIPO_ADSL": "ADSL_2P", "Desc_TIPO": "ADSL 2+ (24 mega)" }, "geometry": { "type": "Point", "coordinates": [ 7.484347, 44.331220 ] } }
,
{ "type": "Feature", "properties": { "ID_Central": 178.000000, "CLLI_SEDE": "CUNEITAW", "NOME_CENTR": "BORGO SAN GIUSEPPE", "COMUNE": "CUNEO", "ISTAT_COMU": "004078", "INDIRIZZO": "SAVONA", "LATITUDINE": 44.391303, "LONGITUDIN": 7.558438, "POINT_X": 385186.074678, "POINT_Y": 4916346.014620, "TIPO_ADSL": "ADSL_1", "Desc_TIPO": "ADSL (8 mega)" }, "geometry": { "type": "Point", "coordinates": [ 7.558438, 44.391303 ] } }
,
{ "type": "Feature", "properties": { "ID_Central": 179.000000, "CLLI_SEDE": "CAMOITCD", "NOME_CENTR": "BORGO SAN MARTINO 2", "COMUNE": "BORGO SAN MARTINO", "ISTAT_COMU": "006020", "INDIRIZZO": "VIA G. PAMPURO", "LATITUDINE": 45.091109, "LONGITUDIN": 8.522623, "POINT_X": 462435.066709, "POINT_Y": 4993182.370000, "TIPO_ADSL": "ADSL_M", "Desc_TIPO": "ADSL Mini" }, "geometry": { "type": "Point", "coordinates": [ 8.522623, 45.091109 ] } }
,
{ "type": "Feature", "properties": { "ID_Central": 180.000000, "CLLI_SEDE": "VERCITAG", "NOME_CENTR": "BORGO VERCELLI", "COMUNE": "BORGO VERCELLI", "ISTAT_COMU": "002017", "INDIRIZZO": "P.ZZA ROMA 5", "LATITUDINE": 45.356949, "LONGITUDIN": 8.466481, "POINT_X": 458212.454240, "POINT_Y": 5022742.561780, "TIPO_ADSL": "ADSL_1", "Desc_TIPO": "ADSL (8 mega)" }, "geometry": { "type": "Point", "coordinates": [ 8.466481, 45.356949 ] } }
,
{ "type": "Feature", "properties": { "ID_Central": 181.000000, "CLLI_SEDE": "IVREITAT", "NOME_CENTR": "BORGOFRANCO D'IVREA", "COMUNE": "BORGOFRANCO D'IVREA", "ISTAT_COMU": "001030", "INDIRIZZO": "MARINI 76 BIS", "LATITUDINE": 45.514529, "LONGITUDIN": 7.858369, "POINT_X": 410831.022665, "POINT_Y": 5040744.433080, "TIPO_ADSL": "ADSL_1", "Desc_TIPO": "ADSL (8 mega)" }, "geometry": { "type": "Point", "coordinates": [ 7.858369, 45.514529 ] } }
,
{ "type": "Feature", "properties": { "ID_Central": 182.000000, "CLLI_SEDE": "TRECITAJ", "NOME_CENTR": "BORGOLAVEZZARO 2", "COMUNE": "BORGOLAVEZZARO", "ISTAT_COMU": "003023", "INDIRIZZO": "VIA IV NOVEMBRE SNC", "LATITUDINE": 45.321667, "LONGITUDIN": 8.699068, "POINT_X": 476415.041291, "POINT_Y": 5018728.579010, "TIPO_ADSL": "ADSL_1", "Desc_TIPO": "ADSL (8 mega)" }, "geometry": { "type": "Point", "coordinates": [ 8.699068, 45.321667 ] } }
,
{ "type": "Feature", "properties": { "ID_Central": 183.000000, "CLLI_SEDE": "BRGOITAL", "NOME_CENTR": "BORGOMANERO", "COMUNE": "BORGOMANERO", "ISTAT_COMU": "003024", "INDIRIZZO": "LORETO", "LATITUDINE": 45.701867, "LONGITUDIN": 8.462946, "POINT_X": 458191.906250, "POINT_Y": 5061064.000000, "TIPO_ADSL": "ADSL_2P", "Desc_TIPO": "ADSL 2+ (24 mega)" }, "geometry": { "type": "Point", "coordinates": [ 8.462946, 45.701867 ] } }
,
{ "type": "Feature", "properties": { "ID_Central": 184.000000, "CLLI_SEDE": "BRGOITBB", "NOME_CENTR": "BORGOMANERO 2", "COMUNE": "BORGOMANERO", "ISTAT_COMU": "003024", "INDIRIZZO": "VIA IV NOVEMBRE", "LATITUDINE": 45.688850, "LONGITUDIN": 8.455910, "POINT_X": 457634.340831, "POINT_Y": 5059621.479150, "TIPO_ADSL": "NO", "Desc_TIPO": "NO Adsl" }, "geometry": { "type": "Point", "coordinates": [ 8.455910, 45.688850 ] } }
,
{ "type": "Feature", "properties": { "ID_Central": 185.000000, "CLLI_SEDE": "BRGOITAV", "NOME_CENTR": "BORGOMANERO MAGGIORE", "COMUNE": "BORGOMANERO", "ISTAT_COMU": "003024", "INDIRIZZO": "VIA MAGGIORA", "LATITUDINE": 45.701900, "LONGITUDIN": 8.451900, "POINT_X": 457332.027636, "POINT_Y": 5061073.474070, "TIPO_ADSL": "NO", "Desc_TIPO": "NO Adsl" }, "geometry": { "type": "Point", "coordinates": [ 8.451900, 45.701900 ] } }
,
{ "type": "Feature", "properties": { "ID_Central": 186.000000, "CLLI_SEDE": "BRGOITAW", "NOME_CENTR": "BORGOMANERO MORA", "COMUNE": "BORGOMANERO", "ISTAT_COMU": "003024", "INDIRIZZO": "V. G.B. MORA 39", "LATITUDINE": 45.709570, "LONGITUDIN": 8.453490, "POINT_X": 457461.622336, "POINT_Y": 5061924.772440, "TIPO_ADSL": "NO", "Desc_TIPO": "NO Adsl" }, "geometry": { "type": "Point", "coordinates": [ 8.453490, 45.709570 ] } }
,
{ "type": "Feature", "properties": { "ID_Central": 187.000000, "CLLI_SEDE": "BRGOITAU", "NOME_CENTR": "BORGOMANERO VICOLO", "COMUNE": "BORGOMANERO", "ISTAT_COMU": "003024", "INDIRIZZO": "VICOLO MAGGIORA", "LATITUDINE": 45.701900, "LONGITUDIN": 8.451900, "POINT_X": 457332.027636, "POINT_Y": 5061073.474070, "TIPO_ADSL": "NO", "Desc_TIPO": "NO Adsl" }, "geometry": { "type": "Point", "coordinates": [ 8.451900, 45.701900 ] } }
,
{ "type": "Feature", "properties": { "ID_Central": 188.000000, "CLLI_SEDE": "IVREITBR", "NOME_CENTR": "BORGOMASINO", "COMUNE": "BORGOMASINO", "ISTAT_COMU": "001031", "INDIRIZZO": "TORINO 4 PALAZZO COMUNALE", "LATITUDINE": 45.362137, "LONGITUDIN": 7.985120, "POINT_X": 420517.448351, "POINT_Y": 5023681.432810, "TIPO_ADSL": "ADSL_M", "Desc_TIPO": "ADSL Mini" }, "geometry": { "type": "Point", "coordinates": [ 7.985120, 45.362137 ] } }
,
{ "type": "Feature", "properties": { "ID_Central": 189.000000, "CLLI_SEDE": "CNDOITAA", "NOME_CENTR": "BORGONE SUSA", "COMUNE": "BORGONE SUSA", "ISTAT_COMU": "001032", "INDIRIZZO": "BOBBA 33 A", "LATITUDINE": 45.121778, "LONGITUDIN": 7.241315, "POINT_X": 361682.687500, "POINT_Y": 4997983.000000, "TIPO_ADSL": "ADSL_2P", "Desc_TIPO": "ADSL 2+ (24 mega)" }, "geometry": { "type": "Point", "coordinates": [ 7.241315, 45.121778 ] } }
,
{ "type": "Feature", "properties": { "ID_Central": 190.000000, "CLLI_SEDE": "CNDOITAM", "NOME_CENTR": "BORGONE SUSA GIACONERA", "COMUNE": "BORGONE SUSA", "ISTAT_COMU": "001032", "INDIRIZZO": "V. GIACONERA", "LATITUDINE": 45.115012, "LONGITUDIN": 7.236098, "POINT_X": 361256.005271, "POINT_Y": 4997240.326530, "TIPO_ADSL": "NO", "Desc_TIPO": "NO Adsl" }, "geometry": { "type": "Point", "coordinates": [ 7.236098, 45.115012 ] } }
,
{ "type": "Feature", "properties": { "ID_Central": 191.000000, "CLLI_SEDE": "CNDOITAL", "NOME_CENTR": "BORGONE SUSA UMBERTO", "COMUNE": "BORGONE SUSA", "ISTAT_COMU": "001032", "INDIRIZZO": "V. UMBERTO 51", "LATITUDINE": 45.110425, "LONGITUDIN": 7.232758, "POINT_X": 360982.150560, "POINT_Y": 4996736.497230, "TIPO_ADSL": "NO", "Desc_TIPO": "NO Adsl" }, "geometry": { "type": "Point", "coordinates": [ 7.232758, 45.110425 ] } }
,
{ "type": "Feature", "properties": { "ID_Central": 192.000000, "CLLI_SEDE": "ALESITAL", "NOME_CENTR": "BORGORATTO ALESSANDRINO", "COMUNE": "BORGORATTO ALESSANDRINO", "ISTAT_COMU": "006019", "INDIRIZZO": "ALESSANDRIA 6", "LATITUDINE": 44.836731, "LONGITUDIN": 8.540088, "POINT_X": 463649.069683, "POINT_Y": 4964916.419140, "TIPO_ADSL": "ADSL_M", "Desc_TIPO": "ADSL Mini" }, "geometry": { "type": "Point", "coordinates": [ 8.540088, 44.836731 ] } }
,
{ "type": "Feature", "properties": { "ID_Central": 193.000000, "CLLI_SEDE": "BORGITAB", "NOME_CENTR": "BORGOSESIA", "COMUNE": "BORGOSESIA", "ISTAT_COMU": "002016", "INDIRIZZO": "PRIVATA STAZIONE 5", "LATITUDINE": 45.716110, "LONGITUDIN": 8.283182, "POINT_X": 444212.000000, "POINT_Y": 5062756.000000, "TIPO_ADSL": "ADSL_2P", "Desc_TIPO": "ADSL 2+ (24 mega)" }, "geometry": { "type": "Point", "coordinates": [ 8.283182, 45.716110 ] } }
,
{ "type": "Feature", "properties": { "ID_Central": 194.000000, "CLLI_SEDE": "OLEGITAD", "NOME_CENTR": "BORGOTICINO", "COMUNE": "BORGO TICINO", "ISTAT_COMU": "003025", "INDIRIZZO": "VIA VITTORIO EMANUELE II 56", "LATITUDINE": 45.688928, "LONGITUDIN": 8.603577, "POINT_X": 469132.494586, "POINT_Y": 5059562.615620, "TIPO_ADSL": "ADSL_2P", "Desc_TIPO": "ADSL 2+ (24 mega)" }, "geometry": { "type": "Point", "coordinates": [ 8.603577, 45.688928 ] } }
,
{ "type": "Feature", "properties": { "ID_Central": 195.000000, "CLLI_SEDE": "BIELITBJ", "NOME_CENTR": "BORRIANA", "COMUNE": "BORRIANA", "ISTAT_COMU": "096006", "INDIRIZZO": "LAMARMORA 4", "LATITUDINE": 45.508423, "LONGITUDIN": 8.038014, "POINT_X": 424854.375782, "POINT_Y": 5039882.309690, "TIPO_ADSL": "ADSL_M", "Desc_TIPO": "ADSL Mini" }, "geometry": { "type": "Point", "coordinates": [ 8.038014, 45.508423 ] } }
,
{ "type": "Feature", "properties": { "ID_Central": 196.000000, "CLLI_SEDE": "RICAITAT", "NOME_CENTR": "BOSCHETTO 2", "COMUNE": "RIVARA", "ISTAT_COMU": "001216", "INDIRIZZO": "LOC. BOSCHETTO", "LATITUDINE": 45.333870, "LONGITUDIN": 7.622900, "POINT_X": 392095.744370, "POINT_Y": 5020962.561020, "TIPO_ADSL": "NO", "Desc_TIPO": "NO Adsl" }, "geometry": { "type": "Point", "coordinates": [ 7.622900, 45.333870 ] } }
,
{ "type": "Feature", "properties": { "ID_Central": 197.000000, "CLLI_SEDE": "ALESITBN", "NOME_CENTR": "BOSCOMARENGO", "COMUNE": "BOSCO MARENGO", "ISTAT_COMU": "006021", "INDIRIZZO": "XX SETTEMBRE", "LATITUDINE": 44.944141, "LONGITUDIN": 8.670385, "POINT_X": 473996.065813, "POINT_Y": 4976798.043260, "TIPO_ADSL": "ADSL_M", "Desc_TIPO": "ADSL Mini" }, "geometry": { "type": "Point", "coordinates": [ 8.670385, 44.944141 ] } }
,
{ "type": "Feature", "properties": { "ID_Central": 198.000000, "CLLI_SEDE": "VOLPITAC", "NOME_CENTR": "BOSCONERO", "COMUNE": "BOSCONERO", "ISTAT_COMU": "001033", "INDIRIZZO": "ROMA 1", "LATITUDINE": 45.268188, "LONGITUDIN": 7.766161, "POINT_X": 403209.429047, "POINT_Y": 5013483.826040, "TIPO_ADSL": "ADSL_1", "Desc_TIPO": "ADSL (8 mega)" }, "geometry": { "type": "Point", "coordinates": [ 7.766161, 45.268188 ] } }
,
{ "type": "Feature", "properties": { "ID_Central": 199.000000, "CLLI_SEDE": "CRTEITAM", "NOME_CENTR": "BOSIA", "COMUNE": "BOSIA", "ISTAT_COMU": "004026", "INDIRIZZO": "P.ZA S.NAZARIO 1", "LATITUDINE": 44.601623, "LONGITUDIN": 8.144414, "POINT_X": 432101.052857, "POINT_Y": 4939053.302660, "TIPO_ADSL": "NO", "Desc_TIPO": "NO Adsl" }, "geometry": { "type": "Point", "coordinates": [ 8.144414, 44.601623 ] } }
,
{ "type": "Feature", "properties": { "ID_Central": 200.000000, "CLLI_SEDE": "SESCITAC", "NOME_CENTR": "BOSIO", "COMUNE": "BOSIO", "ISTAT_COMU": "006022", "INDIRIZZO": "UMBERTO I 50", "LATITUDINE": 44.646904, "LONGITUDIN": 8.790195, "POINT_X": 483362.909960, "POINT_Y": 4943748.533940, "TIPO_ADSL": "NO", "Desc_TIPO": "NO Adsl" }, "geometry": { "type": "Point", "coordinates": [ 8.790195, 44.646904 ] } }
,
{ "type": "Feature", "properties": { "ID_Central": 201.000000, "CLLI_SEDE": "DOGLITAE", "NOME_CENTR": "BOSSOLASCO", "COMUNE": "BOSSOLASCO", "ISTAT_COMU": "004027", "INDIRIZZO": "UMBERTO I N.9", "LATITUDINE": 44.525951, "LONGITUDIN": 8.048891, "POINT_X": 424422.457909, "POINT_Y": 4930731.658470, "TIPO_ADSL": "ADSL_M", "Desc_TIPO": "ADSL Mini" }, "geometry": { "type": "Point", "coordinates": [ 8.048891, 44.525951 ] } }
,
{ "type": "Feature", "properties": { "ID_Central": 202.000000, "CLLI_SEDE": "OULXITAJ", "NOME_CENTR": "BOUSSON", "COMUNE": "CESANA TORINESE", "ISTAT_COMU": "001074", "INDIRIZZO": "FRZ BOUSSON->", "LATITUDINE": 44.930492, "LONGITUDIN": 6.816595, "POINT_X": 327706.189249, "POINT_Y": 4977548.064430, "TIPO_ADSL": "NO", "Desc_TIPO": "NO Adsl" }, "geometry": { "type": "Point", "coordinates": [ 6.816595, 44.930492 ] } }
,
{ "type": "Feature", "properties": { "ID_Central": 203.000000, "CLLI_SEDE": "CUNEITAG", "NOME_CENTR": "BOVES", "COMUNE": "BOVES", "ISTAT_COMU": "004028", "INDIRIZZO": "PRIVATA DA VIA BENE", "LATITUDINE": 44.329922, "LONGITUDIN": 7.559525, "POINT_X": 385152.779330, "POINT_Y": 4909526.554980, "TIPO_ADSL": "ADSL_1", "Desc_TIPO": "ADSL (8 mega)" }, "geometry": { "type": "Point", "coordinates": [ 7.559525, 44.329922 ] } }
,
{ "type": "Feature", "properties": { "ID_Central": 204.000000, "CLLI_SEDE": "CAMOITAS", "NOME_CENTR": "BOZZOLE", "COMUNE": "BOZZOLE", "ISTAT_COMU": "006023", "INDIRIZZO": "VITTORIO EMANUELE 5", "LATITUDINE": 45.070194, "LONGITUDIN": 8.605408, "POINT_X": 468938.111277, "POINT_Y": 4990823.837870, "TIPO_ADSL": "ADSL_1", "Desc_TIPO": "ADSL (8 mega)" }, "geometry": { "type": "Point", "coordinates": [ 8.605408, 45.070194 ] } }
,
{ "type": "Feature", "properties": { "ID_Central": 205.000000, "CLLI_SEDE": "BRAAITAD", "NOME_CENTR": "BRA", "COMUNE": "BRA", "ISTAT_COMU": "004029", "INDIRIZZO": "GUGLIELMO MARCONI 10", "LATITUDINE": 44.696679, "LONGITUDIN": 7.851872, "POINT_X": 409033.710759, "POINT_Y": 4949897.257240, "TIPO_ADSL": "ADSL_2P", "Desc_TIPO": "ADSL 2+ (24 mega)" }, "geometry": { "type": "Point", "coordinates": [ 7.851872, 44.696679 ] } }
,
{ "type": "Feature", "properties": { "ID_Central": 206.000000, "CLLI_SEDE": "BRAAITBP", "NOME_CENTR": "BRA 2", "COMUNE": "BRA", "ISTAT_COMU": "004029", "INDIRIZZO": "STR SAN MICHELE 42\/A", "LATITUDINE": 0.000000, "LONGITUDIN": 0.000000, "POINT_X": 0.000000, "POINT_Y": 0.000000, "TIPO_ADSL": "NO", "Desc_TIPO": "NO Adsl" }, "geometry": { "type": "Point", "coordinates": [ 4.511256, 0.000000 ] } }
,
{ "type": "Feature", "properties": { "ID_Central": 207.000000, "CLLI_SEDE": "CHIVITAA", "NOME_CENTR": "BRANDIZZO", "COMUNE": "BRANDIZZO", "ISTAT_COMU": "001034", "INDIRIZZO": "MONTE GRAPPA 17", "LATITUDINE": 45.176069, "LONGITUDIN": 7.837045, "POINT_X": 408622.515325, "POINT_Y": 5003167.508540, "TIPO_ADSL": "ADSL_2P", "Desc_TIPO": "ADSL 2+ (24 mega)" }, "geometry": { "type": "Point", "coordinates": [ 7.837045, 45.176069 ] } }
,
{ "type": "Feature", "properties": { "ID_Central": 208.000000, "CLLI_SEDE": "ACTEITBJ", "NOME_CENTR": "BRICCHETTO", "COMUNE": "BISTAGNO", "ISTAT_COMU": "006017", "INDIRIZZO": "REG. REZZINARA", "LATITUDINE": 44.671750, "LONGITUDIN": 8.387560, "POINT_X": 451455.536528, "POINT_Y": 4946669.445410, "TIPO_ADSL": "NO", "Desc_TIPO": "NO Adsl" }, "geometry": { "type": "Point", "coordinates": [ 8.387560, 44.671750 ] } }
,
{ "type": "Feature", "properties": { "ID_Central": 209.000000, "CLLI_SEDE": "PINEITAC", "NOME_CENTR": "BRICHERASIO", "COMUNE": "BRICHERASIO", "ISTAT_COMU": "001035", "INDIRIZZO": "VIA VITT. EMANUELE->50", "LATITUDINE": 44.825467, "LONGITUDIN": 7.303591, "POINT_X": 365891.558798, "POINT_Y": 4964962.032770, "TIPO_ADSL": "ADSL_2P", "Desc_TIPO": "ADSL 2+ (24 mega)" }, "geometry": { "type": "Point", "coordinates": [ 7.303591, 44.825467 ] } }
,
{ "type": "Feature", "properties": { "ID_Central": 210.000000, "CLLI_SEDE": "SSCUITAB", "NOME_CENTR": "BRIGNANO FRASCATA", "COMUNE": "BRIGNANO-FRASCATA", "ISTAT_COMU": "006024", "INDIRIZZO": "PIAZZA IV NOVEMBRE", "LATITUDINE": 44.814114, "LONGITUDIN": 9.040481, "POINT_X": 503200.821413, "POINT_Y": 4962301.956350, "TIPO_ADSL": "ADSL_M", "Desc_TIPO": "ADSL Mini" }, "geometry": { "type": "Point", "coordinates": [ 9.040481, 44.814114 ] } }
,
{ "type": "Feature", "properties": { "ID_Central": 211.000000, "CLLI_SEDE": "BANDITAH", "NOME_CENTR": "BRIONA", "COMUNE": "BRIONA", "ISTAT_COMU": "003027", "INDIRIZZO": "SOLAROLI", "LATITUDINE": 45.541637, "LONGITUDIN": 8.478798, "POINT_X": 459310.188743, "POINT_Y": 5043254.369390, "TIPO_ADSL": "ADSL_M", "Desc_TIPO": "ADSL Mini" }, "geometry": { "type": "Point", "coordinates": [ 8.478798, 45.541637 ] } }
,
{ "type": "Feature", "properties": { "ID_Central": 212.000000, "CLLI_SEDE": "ALPIITAH", "NOME_CENTR": "BRIONE 2", "COMUNE": "VAL DELLA TORRE", "ISTAT_COMU": "001284", "INDIRIZZO": "V.ALPIGNANO 155-GR.DI BRI", "LATITUDINE": 45.125511, "LONGITUDIN": 7.495163, "POINT_X": 381655.089849, "POINT_Y": 4997994.700720, "TIPO_ADSL": "ADSL_1", "Desc_TIPO": "ADSL (8 mega)" }, "geometry": { "type": "Point", "coordinates": [ 7.495163, 45.125511 ] } }
,
{ "type": "Feature", "properties": { "ID_Central": 213.000000, "CLLI_SEDE": "OMEGITAC", "NOME_CENTR": "BROLO DI NONIO", "COMUNE": "NONIO", "ISTAT_COMU": "103048", "INDIRIZZO": "VIA CIREGGIO 1", "LATITUDINE": 45.857670, "LONGITUDIN": 8.385270, "POINT_X": 452278.159053, "POINT_Y": 5078417.566910, "TIPO_ADSL": "NO", "Desc_TIPO": "NO Adsl" }, "geometry": { "type": "Point", "coordinates": [ 8.385270, 45.857670 ] } }
,
{ "type": "Feature", "properties": { "ID_Central": 214.000000, "CLLI_SEDE": "SALUITAM", "NOME_CENTR": "BROSSASCO", "COMUNE": "BROSSASCO", "ISTAT_COMU": "004033", "INDIRIZZO": "GALLIANO 3", "LATITUDINE": 44.570402, "LONGITUDIN": 7.361026, "POINT_X": 369861.865000, "POINT_Y": 4936535.750000, "TIPO_ADSL": "ADSL_1", "Desc_TIPO": "ADSL (8 mega)" }, "geometry": { "type": "Point", "coordinates": [ 7.361026, 44.570402 ] } }
,
{ "type": "Feature", "properties": { "ID_Central": 215.000000, "CLLI_SEDE": "SALUITCD", "NOME_CENTR": "BROSSASCO 1", "COMUNE": "BROSSASCO", "ISTAT_COMU": "004033", "INDIRIZZO": "BG. S. SISTO->4", "LATITUDINE": 0.000000, "LONGITUDIN": 0.000000, "POINT_X": 0.000000, "POINT_Y": 0.000000, "TIPO_ADSL": "NO", "Desc_TIPO": "NO Adsl" }, "geometry": { "type": "Point", "coordinates": [ 4.511256, 0.000000 ] } }
,
{ "type": "Feature", "properties": { "ID_Central": 216.000000, "CLLI_SEDE": "IVREITCF", "NOME_CENTR": "BROSSO 2", "COMUNE": "BROSSO", "ISTAT_COMU": "001036", "INDIRIZZO": "P.ZA SCLOPIS", "LATITUDINE": 45.491840, "LONGITUDIN": 7.803340, "POINT_X": 406495.385348, "POINT_Y": 5038286.361260, "TIPO_ADSL": "NO", "Desc_TIPO": "NO Adsl" }, "geometry": { "type": "Point", "coordinates": [ 7.803340, 45.491840 ] } }
,
{ "type": "Feature", "properties": { "ID_Central": 217.000000, "CLLI_SEDE": "BAVEITAH", "NOME_CENTR": "BROVELLO", "COMUNE": "BROVELLO-CARPUGNINO", "ISTAT_COMU": "103013", "INDIRIZZO": "VIA MARCONI", "LATITUDINE": 45.842250, "LONGITUDIN": 8.531590, "POINT_X": 463627.006058, "POINT_Y": 5076627.296240, "TIPO_ADSL": "NO", "Desc_TIPO": "NO Adsl" }, "geometry": { "type": "Point", "coordinates": [ 8.531590, 45.842250 ] } }
,
{ "type": "Feature", "properties": { "ID_Central": 218.000000, "CLLI_SEDE": "CHIVITAN", "NOME_CENTR": "BROZOLO", "COMUNE": "BROZOLO", "ISTAT_COMU": "001037", "INDIRIZZO": "PIAZZA MUNICIPIO", "LATITUDINE": 45.109848, "LONGITUDIN": 8.071074, "POINT_X": 426926.458776, "POINT_Y": 4995572.923990, "TIPO_ADSL": "ADSL_M", "Desc_TIPO": "ADSL Mini" }, "geometry": { "type": "Point", "coordinates": [ 8.071074, 45.109848 ] } }
,
{ "type": "Feature", "properties": { "ID_Central": 219.000000, "CLLI_SEDE": "ORBAITAD", "NOME_CENTR": "BRUINO", "COMUNE": "BRUINO", "ISTAT_COMU": "001038", "INDIRIZZO": "TRANA 6", "LATITUDINE": 45.022500, "LONGITUDIN": 7.464000, "POINT_X": 378987.068869, "POINT_Y": 4986597.445590, "TIPO_ADSL": "ADSL_2P", "Desc_TIPO": "ADSL 2+ (24 mega)" }, "geometry": { "type": "Point", "coordinates": [ 7.464000, 45.022500 ] } }
,
{ "type": "Feature", "properties": { "ID_Central": 220.000000, "CLLI_SEDE": "ORBAITBB", "NOME_CENTR": "BRUINO 2", "COMUNE": "BRUINO", "ISTAT_COMU": "001038", "INDIRIZZO": "STR.COMUNALE > V.FERRARIS", "LATITUDINE": 45.018380, "LONGITUDIN": 7.482500, "POINT_X": 380436.019425, "POINT_Y": 4986112.275730, "TIPO_ADSL": "NO", "Desc_TIPO": "NO Adsl" }, "geometry": { "type": "Point", "coordinates": [ 7.482500, 45.018380 ] } }
,
{ "type": "Feature", "properties": { "ID_Central": 221.000000, "CLLI_SEDE": "NIMOITAH", "NOME_CENTR": "BRUNO", "COMUNE": "BRUNO", "ISTAT_COMU": "005010", "INDIRIZZO": "MARCONI", "LATITUDINE": 44.793522, "LONGITUDIN": 8.442073, "POINT_X": 455869.164842, "POINT_Y": 4960165.114950, "TIPO_ADSL": "NO", "Desc_TIPO": "NO Adsl" }, "geometry": { "type": "Point", "coordinates": [ 8.442073, 44.793522 ] } }
,
{ "type": "Feature", "properties": { "ID_Central": 222.000000, "CLLI_SEDE": "COSSITAB", "NOME_CENTR": "BRUSNENGO", "COMUNE": "BRUSNENGO", "ISTAT_COMU": "096007", "INDIRIZZO": "CARLO VERZONE 19", "LATITUDINE": 45.593471, "LONGITUDIN": 8.250217, "POINT_X": 441518.922165, "POINT_Y": 5049154.289380, "TIPO_ADSL": "ADSL_1", "Desc_TIPO": "ADSL (8 mega)" }, "geometry": { "type": "Point", "coordinates": [ 8.250217, 45.593471 ] } }
,
{ "type": "Feature", "properties": { "ID_Central": 223.000000, "CLLI_SEDE": "CNDOITAN", "NOME_CENTR": "BRUZOLO 2", "COMUNE": "BRUZOLO", "ISTAT_COMU": "001040", "INDIRIZZO": "CAMPO SPORTIVO (CONTAINER)", "LATITUDINE": 45.143212, "LONGITUDIN": 7.193532, "POINT_X": 357977.906250, "POINT_Y": 5000447.000000, "TIPO_ADSL": "ADSL_1", "Desc_TIPO": "ADSL (8 mega)" }, "geometry": { "type": "Point", "coordinates": [ 7.193532, 45.143212 ] } }
,
{ "type": "Feature", "properties": { "ID_Central": 224.000000, "CLLI_SEDE": "BUBBITAA", "NOME_CENTR": "BUBBIO", "COMUNE": "BUBBIO", "ISTAT_COMU": "005011", "INDIRIZZO": "ROMA 26", "LATITUDINE": 44.664711, "LONGITUDIN": 8.293892, "POINT_X": 444024.254117, "POINT_Y": 4945947.610380, "TIPO_ADSL": "ADSL_M", "Desc_TIPO": "ADSL Mini" }, "geometry": { "type": "Point", "coordinates": [ 8.293892, 44.664711 ] } }
,
{ "type": "Feature", "properties": { "ID_Central": 225.000000, "CLLI_SEDE": "GOZZITAM", "NOME_CENTR": "BUGNATE", "COMUNE": "GOZZANO", "ISTAT_COMU": "003076", "INDIRIZZO": "VIA ALLA PARROCCHIA->S.N.", "LATITUDINE": 45.750090, "LONGITUDIN": 8.433620, "POINT_X": 455946.880577, "POINT_Y": 5066437.355310, "TIPO_ADSL": "NO", "Desc_TIPO": "NO Adsl" }, "geometry": { "type": "Point", "coordinates": [ 8.433620, 45.750090 ] } }
,
{ "type": "Feature", "properties": { "ID_Central": 226.000000, "CLLI_SEDE": "PINEITAA", "NOME_CENTR": "BURIASCO", "COMUNE": "BURIASCO", "ISTAT_COMU": "001041", "INDIRIZZO": "PIAZZA ROMA 2\/A", "LATITUDINE": 44.873371, "LONGITUDIN": 7.410784, "POINT_X": 374469.787053, "POINT_Y": 4970112.130910, "TIPO_ADSL": "ADSL_M", "Desc_TIPO": "ADSL Mini" }, "geometry": { "type": "Point", "coordinates": [ 7.410784, 44.873371 ] } }
,
{ "type": "Feature", "properties": { "ID_Central": 227.000000, "CLLI_SEDE": "BUROITAG", "NOME_CENTR": "BURONZO", "COMUNE": "BURONZO", "ISTAT_COMU": "002021", "INDIRIZZO": "S. SEBASTIANO", "LATITUDINE": 45.480564, "LONGITUDIN": 8.269839, "POINT_X": 442935.257256, "POINT_Y": 5036596.489550, "TIPO_ADSL": "ADSL_M", "Desc_TIPO": "ADSL Mini" }, "geometry": { "type": "Point", "coordinates": [ 8.269839, 45.480564 ] } }
,
{ "type": "Feature", "properties": { "ID_Central": 228.000000, "CLLI_SEDE": "RICAITAW", "NOME_CENTR": "BUSANO 2", "COMUNE": "BUSANO", "ISTAT_COMU": "001043", "INDIRIZZO": "VIA SALATO 13", "LATITUDINE": 45.330349, "LONGITUDIN": 7.655759, "POINT_X": 394663.901468, "POINT_Y": 5020527.944120, "TIPO_ADSL": "ADSL_1", "Desc_TIPO": "ADSL (8 mega)" }, "geometry": { "type": "Point", "coordinates": [ 7.655759, 45.330349 ] } }
,
{ "type": "Feature", "properties": { "ID_Central": 229.000000, "CLLI_SEDE": "BUSCITAF", "NOME_CENTR": "BUSCA", "COMUNE": "BUSCA", "ISTAT_COMU": "004034", "INDIRIZZO": "STR.VICINALE S.GIACOMO", "LATITUDINE": 44.519720, "LONGITUDIN": 7.476767, "POINT_X": 378947.000000, "POINT_Y": 4930728.000000, "TIPO_ADSL": "ADSL_2P", "Desc_TIPO": "ADSL 2+ (24 mega)" }, "geometry": { "type": "Point", "coordinates": [ 7.476767, 44.519720 ] } }
,
{ "type": "Feature", "properties": { "ID_Central": 230.000000, "CLLI_SEDE": "BUSCITAH", "NOME_CENTR": "BUSCA COSTIGLIOLE", "COMUNE": "BUSCA", "ISTAT_COMU": "004034", "INDIRIZZO": "STRADA VICINALE DEL CUCO", "LATITUDINE": 44.543240, "LONGITUDIN": 7.489928, "POINT_X": 380041.189457, "POINT_Y": 4933321.170300, "TIPO_ADSL": "NO", "Desc_TIPO": "NO Adsl" }, "geometry": { "type": "Point", "coordinates": [ 7.489928, 44.543240 ] } }
,
{ "type": "Feature", "properties": { "ID_Central": 231.000000, "CLLI_SEDE": "BUSCITU0", "NOME_CENTR": "BUSCA MA0001", "COMUNE": "BUSCA", "ISTAT_COMU": "004034", "INDIRIZZO": "STR.BORG.MARINO Z.INDST.2", "LATITUDINE": 0.000000, "LONGITUDIN": 0.000000, "POINT_X": 0.000000, "POINT_Y": 0.000000, "TIPO_ADSL": "NO", "Desc_TIPO": "NO Adsl" }, "geometry": { "type": "Point", "coordinates": [ 4.511256, 0.000000 ] } }
,
{ "type": "Feature", "properties": { "ID_Central": 232.000000, "CLLI_SEDE": "BUSCITU0", "NOME_CENTR": "BUSCA MA0002", "COMUNE": "BUSCA", "ISTAT_COMU": "004034", "INDIRIZZO": "C.SO GIOVANNI XXIII Z.IN2", "LATITUDINE": 0.000000, "LONGITUDIN": 0.000000, "POINT_X": 0.000000, "POINT_Y": 0.000000, "TIPO_ADSL": "NO", "Desc_TIPO": "NO Adsl" }, "geometry": { "type": "Point", "coordinates": [ 4.511256, 0.000000 ] } }
,
{ "type": "Feature", "properties": { "ID_Central": 233.000000, "CLLI_SEDE": "BUSCITAN", "NOME_CENTR": "BUSCA MORRA", "COMUNE": "BUSCA", "ISTAT_COMU": "004034", "INDIRIZZO": "FRAZ.MORRA S.GIOVANNI 52", "LATITUDINE": 44.506791, "LONGITUDIN": 7.449828, "POINT_X": 376778.836048, "POINT_Y": 4929332.147130, "TIPO_ADSL": "NO", "Desc_TIPO": "NO Adsl" }, "geometry": { "type": "Point", "coordinates": [ 7.449828, 44.506791 ] } }
,
{ "type": "Feature", "properties": { "ID_Central": 234.000000, "CLLI_SEDE": "SUSAITAG", "NOME_CENTR": "BUSSOLENO", "COMUNE": "BUSSOLENO", "ISTAT_COMU": "001044", "INDIRIZZO": "MATTIE 25", "LATITUDINE": 45.136372, "LONGITUDIN": 7.146868, "POINT_X": 354291.828533, "POINT_Y": 4999770.243320, "TIPO_ADSL": "ADSL_1", "Desc_TIPO": "ADSL (8 mega)" }, "geometry": { "type": "Point", "coordinates": [ 7.146868, 45.136372 ] } }
,
{ "type": "Feature", "properties": { "ID_Central": 235.000000, "CLLI_SEDE": "CDBOITAB", "NOME_CENTR": "BUTTIGLIERA", "COMUNE": "BUTTIGLIERA D'ASTI", "ISTAT_COMU": "005012", "INDIRIZZO": "VIA CANONICO BOSSO 58", "LATITUDINE": 45.019085, "LONGITUDIN": 7.953453, "POINT_X": 417543.471013, "POINT_Y": 4985603.208410, "TIPO_ADSL": "ADSL_M", "Desc_TIPO": "ADSL Mini" },